city_code,city_name,postal_code,department_code,latitude,longitude
02001,Abbecourt,02300,02,49.59972547424913,3.182410113865684
02002,Achery,02800,02,49.6935252313218,3.3973716561319214
02003,Acy,02200,02,49.34763707192382,3.418811344552251
02004,Agnicourt Et Sechelles,02340,02,49.71724538962958,3.963749452428301
02005,Aguilcourt,02190,02,49.39527456453098,3.966312654397491
02006,Aisonville Et Bernoville,02110,02,49.931299650216005,3.512148650274063
02007,Aizelles,02820,02,49.48646474646593,3.8210789334176942
02008,Aizy Jouy,02370,02,49.4372466072483,3.5127849048983393
02009,Alaincourt,02240,02,49.76808697912361,3.369212302643366
02010,Allemant,02320,02,49.4639462561109,3.45913023973975
02011,Ambleny,02290,02,49.37354680903063,3.166197392103363
02012,Ambrief,02200,02,49.32260330265881,3.4057616274703726
02013,Amifontaine,02190,02,49.49772225405502,3.9218451458578905
02014,Amigny Rouy,02700,02,49.61108537237099,3.305855117741618
02015,Ancienville,02600,02,49.219619572655986,3.206486829144536
02016,Andelain,02800,02,49.642769513295924,3.3685533607469935
02017,Anguilcourt Le Sart,02800,02,49.69708681654268,3.42395835526598
02018,Anizy Le Grand,02320,02,49.51589394404855,3.442627965018324
02019,Annois,02480,02,49.712237988196165,3.1761320637959196
02020,Any Martin Rieux,02500,02,49.8851453494225,4.219032062850054
02021,Archon,02360,02,49.74441599767096,4.117566543912678
02022,Arcy Ste Restitue,02130,02,49.25568049075769,3.4775764024105147
02023,Armentieres Sur Ourcq,02210,02,49.17306682500541,3.391636879467852
02024,Arrancy,02860,02,49.49851888151709,3.7646963119944417
02025,Artemps,02480,02,49.762342190379854,3.1959619087357938
02027,Assis Sur Serre,02270,02,49.67880914144184,3.554716335834827
02028,Athies Sous Laon,02840,02,49.575403264376554,3.690527858082292
02029,Attilly,02490,02,49.85567149986099,3.1532848960854727
02030,Aubencheul Aux Bois,02420,02,50.024765874081716,3.261401840029677
02031,Aubenton,02500,02,49.82541471825116,4.192793850502102
02032,Aubigny Aux Kaisnes,02590,02,49.77240062775339,3.1167348471712737
02033,Aubigny En Laonnois,02820,02,49.49496978434706,3.7921255167112045
02034,Audignicourt,02300,02,49.477854738018294,3.126791644924825
02035,Audigny,02120,02,49.86505747132614,3.631386806562711
02036,Augy,02220,02,49.34053725635931,3.5117346553643607
02037,Aulnois Sous Laon,02000,02,49.62129548184192,3.6111090569158955
02039,Autremencourt,02250,02,49.70421739734594,3.7931115714099914
02040,Autreppes,02580,02,49.896316233320874,3.8571133886449176
02041,Autreville,02300,02,49.587772048331836,3.237825331122817
02042,Azy Sur Marne,02400,02,49.00611341976353,3.357538930603956
02043,Bagneux,02290,02,49.45951825776096,3.277568582211522
02044,Bancigny,02140,02,49.799666855582075,4.038253346249965
02046,Barenton Bugny,02000,02,49.62171439354041,3.661244073729687
02047,Barenton Cel,02000,02,49.64660943006672,3.6447631017837923
02048,Barenton Sur Serre,02270,02,49.668221930729786,3.692931285174272
02049,Barisis Aux Bois,02700,02,49.58144556861154,3.3320285412764354
02050,Barzy En Thierache,02170,02,50.03777775777522,3.7522053904491934
02051,Barzy Sur Marne,02850,02,49.09000119482798,3.5586405633919185
02052,Bassoles Aulers,02380,02,49.53277320037222,3.382760433121004
02054,Bazoches Et St Thibaut,02220,02,49.29912269035876,3.6184652252971143
02055,Beaume,02500,02,49.81873647507844,4.152863267250947
02056,Beaumont En Beine,02300,02,49.68763885716579,3.131703794775254
02057,Beaurevoir,02110,02,49.996547395912486,3.332009482574528
02058,Beaurieux,02160,02,49.402896526645215,3.75944250044115
02059,Beautor,02800,02,49.64716604357794,3.33608743770926
02060,Beauvois En Vermandois,02590,02,49.83313534305593,3.102298480024144
02061,Becquigny,02110,02,50.01428509675984,3.4579621074549576
02062,Belleau,02400,02,49.08024210311545,3.303628649973229
02063,Bellenglise,02420,02,49.9240930486193,3.2431292024587473
02064,Belleu,02200,02,49.35966623955664,3.3439072866101363
02065,Bellicourt,02420,02,49.958056788729934,3.2284089569770864
02066,Benay,02440,02,49.75556893472206,3.3076131345795208
02067,Bergues Sur Sambre,02450,02,50.02998915655272,3.7114479784284016
02068,Berlancourt,02250,02,49.77991247797499,3.7570004358912588
02069,Berlise,02340,02,49.662839061846114,4.11038510187183
02070,Bernot,02120,02,49.88270612852553,3.4826901695108488
02564,Bernoy Le Chateau,02200,02,49.320032071105054,3.3067122984365183
02071,Berny Riviere,02290,02,49.41182176544227,3.151962452803411
02072,Berrieux,02820,02,49.482834277459105,3.8531307528963006
02073,Berry Au Bac,02190,02,49.40757155529175,3.8946555247301986
02074,Bertaucourt Epourdon,02800,02,49.62826131004569,3.3988461006923174
02075,Berthenicourt,02240,02,49.77874762353033,3.3730279935074057
02076,Bertricourt,02190,02,49.3975399984606,4.01163957864305
02078,Besme,02300,02,49.534753241353094,3.165678190487891
02079,Besmont,02500,02,49.82088827176219,4.1160455312305215
02080,Besny Et Loizy,02870,02,49.59140559231494,3.577834932040491
02081,Bethancourt En Vaux,02300,02,49.62738748119462,3.137557103588258
02082,Beugneux,02210,02,49.22434227917516,3.418740238266853
02083,Beuvardes,02130,02,49.12783524563132,3.4884036314763502
02084,Bezu Le Guery,02310,02,49.010065228812465,3.22830624762258
02085,Bezu St Germain,02400,02,49.10454137931248,3.408151628544137
02086,Bichancourt,02300,02,49.57870522351058,3.2134606135561175
02087,Bieuxy,02290,02,49.44692697262106,3.2686500105889573
02088,Bievres,02860,02,49.49231536465889,3.714118110498288
02089,Billy Sur Aisne,02200,02,49.35549704758498,3.3753064054666817
02090,Billy Sur Ourcq,02210,02,49.223343288234155,3.3009906308731267
02091,Blanzy Les Fismes,02160,02,49.33775411299307,3.6702459157200904
02093,Blerancourt,02300,02,49.50997452663432,3.1489793456829873
02094,Blesmes,02400,02,49.02583153680844,3.462792019471565
02095,Bohain En Vermandois,02110,02,49.98874319531322,3.464030014445936
02096,Bois Les Pargny,02270,02,49.73828097932271,3.6566901402413996
02097,Boncourt,02350,02,49.628709399568905,3.9552711524944772
02098,Bonneil,02400,02,49.00765877611111,3.3476413027493086
02099,Bonnesvalyn,02400,02,49.124479130474334,3.328505882714242
02100,Bony,02420,02,49.989572332597554,3.2179874611718082
02101,Bosmont Sur Serre,02250,02,49.73809374240362,3.8664033180486284
02102,Bouconville Vauclair,02860,02,49.46057814927227,3.7608555897754927
02103,Boue,02450,02,50.01005232573226,3.7126104016440595
02104,Bouffignereux,02160,02,49.37764492345145,3.8470206154396944
02105,Bouresches,02400,02,49.06648093169251,3.319134837787516
02106,Bourg Et Comin,02160,02,49.4038244945262,3.6564768248462016
02107,Bourguignon Sous Coucy,02300,02,49.54167521668262,3.1578771305460487
02108,Bourguignon Sous Montbavin,02000,02,49.52798830522333,3.538928939270839
02110,Braine,02220,02,49.34877963881496,3.5356634218879384
02111,Brancourt En Laonnois,02320,02,49.51704914697568,3.412799561562072
02112,Brancourt Le Grand,02110,02,49.97978763449539,3.3956287890843653
02114,Brasles,02400,02,49.057919300114364,3.4195538735718722
02117,Bray St Christophe,02480,02,49.77381591650038,3.1419527008011947
02118,Braye,02880,02,49.42223369239224,3.376876558786489
02115,Braye En Laonnois,02000,02,49.436958379162235,3.6096257378138263
02116,Braye En Thierache,02140,02,49.76648329157659,3.962273385076181
02119,Brecy,02210,02,49.140192440268066,3.4263259645666633
02120,Brenelle,02220,02,49.369360526611494,3.5459020503876424
02121,Breny,02210,02,49.18256508561731,3.3513328975920498
02122,Brie,02870,02,49.5991661885801,3.4721887371583113
02123,Brissay Choigny,02240,02,49.722445237601484,3.404181605497665
02124,Brissy Hamegicourt,02240,02,49.74576707000872,3.4010907581552026
02125,Brumetz,02810,02,49.112428607255914,3.1527912441366426
02126,Brunehamel,02360,02,49.768603225205396,4.187974201165844
02128,Bruyeres Et Montberault,02860,02,49.51836497258004,3.6698290143181826
02127,Bruyeres Sur Fere,02130,02,49.1993922011829,3.4449683334269166
02129,Bruys,02220,02,49.25951988762268,3.566915884003869
02130,Bucilly,02500,02,49.86356976205203,4.09381258168486
02131,Bucy Le Long,02880,02,49.39001554565891,3.392324016864972
02132,Bucy Les Cerny,02870,02,49.579876306049144,3.4929743208944704
02133,Bucy Les Pierrepont,02350,02,49.64942150293433,3.9040073016656396
02134,Buire,02500,02,49.90802368146905,4.056102318427147
02135,Buironfosse,02620,02,49.95798766316686,3.8371282539347487
02136,Burelles,02140,02,49.77022585279424,3.914846534763583
02137,Bussiares,02810,02,49.0749306971348,3.2501372221703697
02138,Buzancy,02200,02,49.30856663054797,3.348665776533065
02139,Caillouel Crepigny,02300,02,49.617387808633595,3.1225539908371136
02140,Camelin,02300,02,49.52442605327783,3.124324592266947
02142,Castres,02680,02,49.80302609571771,3.2575589756776147
02144,Caulaincourt,02490,02,49.86461618166352,3.1078206539915065
02145,Caumont,02300,02,49.63740147806203,3.173034015001515
02146,Celles Les Conde,02330,02,49.01578436005919,3.5703080594747036
02148,Celles Sur Aisne,02370,02,49.41351738769849,3.470146402792071
02149,Cerizy,02240,02,49.7666738607628,3.334558730305309
02150,Cerny En Laonnois,02860,02,49.44922961691533,3.6802906680040084
02151,Cerny Les Bucy,02870,02,49.579144145791915,3.5466127572827366
02152,Cerseuil,02220,02,49.32592083147664,3.517493778316399
02153,Cessieres Suzy,02320,02,49.557470264804024,3.4816730563484963
02154,Chacrise,02200,02,49.30081174094353,3.396397252946758
02155,Chaillevois,02000,02,49.508676247458126,3.52325005605291
02156,Chalandry,02270,02,49.66914315329696,3.6474546077467913
02157,Chambry,02000,02,49.598514230970814,3.671890666708543
02158,Chamouille,02860,02,49.472338956027684,3.6710079215852813
02159,Champs,02670,02,49.53797179051449,3.2570215000549982
02160,Chaourse,02340,02,49.70297193800549,3.9836583020473446
02163,Charly Sur Marne,02310,02,48.98211720597533,3.29355567763752
02165,Charmes,02800,02,49.65236347587067,3.3833529956919968
02166,Charteves,02400,02,49.09012555658978,3.502364566872798
02167,Chassemy,02370,02,49.37776105663856,3.5045794456467068
02168,Chateau Thierry,02400,02,49.05559174591902,3.3783730257683082
02169,Chatillon Les Sons,02270,02,49.7628905842127,3.6986003650413375
02170,Chatillon Sur Oise,02240,02,49.795083556322965,3.417308021287856
02171,Chaudardes,02160,02,49.39680686227739,3.7879523448030596
02172,Chaudun,02200,02,49.31405197687253,3.250764533034645
02173,Chauny,02300,02,49.618454358444325,3.219183921118531
02174,Chavignon,02000,02,49.47821443218665,3.5154864184008643
02175,Chavigny,02880,02,49.42291951717119,3.309047340978374
02176,Chavonne,02370,02,49.40807392060182,3.561449150401085
02177,Cheret,02860,02,49.51465849089669,3.6877744890139366
02178,Chermizy Ailles,02860,02,49.463994170519655,3.719573036001874
02179,Chery Chartreuve,02220,02,49.252867634690716,3.608062557748302
02180,Chery Les Pouilly,02000,02,49.647934257427515,3.588642042630538
02181,Chery Les Rozoy,02360,02,49.72450013581516,4.1026421609703885
02182,Chevennes,02250,02,49.81956769220254,3.7386066122840713
02183,Chevregny,02000,02,49.469988551631616,3.595024396567987
02184,Chevresis Monceau,02270,02,49.76569544136389,3.5843261416613217
02185,Chezy En Orxois,02810,02,49.124715021254524,3.1564842341984454
02186,Chezy Sur Marne,02570,02,48.985693262933964,3.388206452442126
02187,Chierry,02400,02,49.03258963327549,3.4321224502018968
02188,Chigny,02120,02,49.92909398181154,3.7727520044826885
02189,Chivres En Laonnois,02350,02,49.62557037942203,3.857648612584579
02190,Chivres Val,02880,02,49.404777533660834,3.437087249239982
02191,Chivy Les Etouvelles,02000,02,49.53341946378472,3.5837610211342015
02192,Chouy,02210,02,49.21537612009746,3.2432556541164033
02193,Cierges,02130,02,49.165869864127714,3.602218847962553
02194,Cilly,02250,02,49.74725685731326,3.8420744333289587
02195,Ciry Salsogne,02220,02,49.36929977772413,3.46637742329712
02196,Clacy Et Thierret,02000,02,49.55459350426288,3.5651264555738162
02197,Clairfontaine,02260,02,49.96897711290822,3.991879419822522
02198,Clamecy,02880,02,49.42738201788259,3.365447293346149
02199,Clastres,02440,02,49.74909758375715,3.2279571365286843
02200,Clermont Les Fermes,02340,02,49.66015625725506,3.9447967424488697
02201,Coeuvres Et Valsery,02600,02,49.323967071930156,3.1495957852372145
02203,Coincy,02210,02,49.1547884870169,3.4331431591059713
02204,Coingt,02360,02,49.79278543997239,4.095609274454048
02205,Colligis Crandelain,02860,02,49.46957818473812,3.6280144291992875
02206,Colonfay,02120,02,49.85751585406427,3.7117280116489946
02207,Commenchon,02300,02,49.64151062064073,3.1488099776579164
02208,Concevreux,02160,02,49.378146240031356,3.7827633418213527
02209,Conde En Brie,02330,02,48.999854060008104,3.560221849227844
02210,Conde Sur Aisne,02370,02,49.40141420521498,3.4684256717373825
02211,Conde Sur Suippe,02190,02,49.41469677143982,3.944661297500059
02212,Condren,02700,02,49.633187269624315,3.2767223555869784
02213,Connigis,02330,02,49.035733894723094,3.531984585408657
02214,Contescourt,02680,02,49.792125603304214,3.2343010075767378
02215,Corbeny,02820,02,49.461293521467624,3.82558682675454
02216,Corcy,02600,02,49.2527618142872,3.195723590490899
02219,Coucy La Ville,02380,02,49.541390066183695,3.3412963528556556
02217,Coucy Le Chateau Auffrique,02380,02,49.51397318656471,3.317829297243804
02218,Coucy Les Eppes,02840,02,49.55606270139238,3.7810856020146244
02220,Coulonges Cohan,02130,02,49.19580739708992,3.623838528309324
02221,Coupru,02310,02,49.030361285129295,3.274889773046506
02222,Courbes,02800,02,49.68037987295188,3.4567013367798554
02223,Courboin,02330,02,48.995562026937705,3.512701062456716
02224,Courcelles Sur Vesle,02220,02,49.346411395365486,3.575964635652592
02225,Courchamps,02810,02,49.11516922123255,3.2609762808072933
02226,Courmelles,02200,02,49.34562877775426,3.299412419853188
02227,Courmont,02130,02,49.14111175076098,3.5711544104085444
02228,Courtemont Varennes,02850,02,49.07192416681174,3.5413619929779045
02229,Courtrizy Et Fussigny,02820,02,49.515222982247195,3.7952565774871028
02230,Couvrelles,02220,02,49.332796500747264,3.485024355880838
02231,Couvron Et Aumencourt,02270,02,49.64644253063753,3.5149729898522315
02232,Coyolles,02600,02,49.21604385746159,3.020980550565843
02233,Cramaille,02130,02,49.22690905949001,3.4554901933184485
02234,Craonne,02160,02,49.44909286849398,3.7946870175679273
02235,Craonnelle,02160,02,49.425096664260806,3.775493757273545
02236,Crecy Au Mont,02380,02,49.484593643105185,3.314121849372788
02237,Crecy Sur Serre,02270,02,49.69301572858744,3.6187938905689574
02238,Crepy,02870,02,49.60889994812336,3.508808549055884
02239,Crezancy,02650,02,49.040538134710914,3.5169302675063676
02240,Croix Fonsomme,02110,02,49.93288366375069,3.393730490612689
02242,Crouttes Sur Marne,02310,02,48.97747914783819,3.247039742662352
02243,Crouy,02880,02,49.40729576103958,3.3684016990613705
02244,Crupilly,02120,02,49.92994459654153,3.7555279767831697
02245,Cuffies,02880,02,49.408586283008475,3.319670394321218
02246,Cugny,02480,02,49.709748954396616,3.1518443303681263
02248,Cuirieux,02350,02,49.68346354841574,3.820586333995253
02249,Cuiry Housse,02220,02,49.288562196649664,3.4902743753905376
02250,Cuiry Les Chaudardes,02160,02,49.391947001279775,3.7621487954764508
02251,Cuiry Les Iviers,02360,02,49.76609589040317,4.104525285736528
02252,Cuissy Et Geny,02160,02,49.40127565891011,3.705579539222452
02253,Cuisy En Almont,02200,02,49.4219973521267,3.2451833591317825
02254,Cutry,02600,02,49.344956185704106,3.1906548184440844
02255,Cys La Commune,02220,02,49.38375353976336,3.571704045829087
02256,Dagny Lambercy,02140,02,49.76847064815967,4.043688237212038
02257,Dallon,02680,02,49.824919699235345,3.2327169293062785
02258,Dammard,02470,02,49.145973090273586,3.1723105154015503
02259,Dampleux,02600,02,49.240845359897065,3.1470543846465127
02260,Danizy,02800,02,49.66575080405941,3.403667382855049
02261,Dercy,02270,02,49.71273524070811,3.6847155795580386
02262,Deuillet,02700,02,49.62713184178414,3.357127657969044
02263,Dhuizel,02220,02,49.35914746505124,3.6147917441674693
02458,Dhuys Et Morin En Brie,02330,02,48.89167331637492,3.509171345359443
02264,Dizy Le Gros,02340,02,49.635061294314355,4.0171350391541205
02265,Dohis,02360,02,49.76595820278679,4.142088756860414
02266,Dolignon,02360,02,49.729496775332976,4.087256208861415
02267,Dommiers,02600,02,49.33142164565565,3.2165018636617986
02268,Domptin,02310,02,49.01506716980413,3.270498410213712
02269,Dorengt,02450,02,49.96559579690556,3.7013596599865464
02270,Douchy,02590,02,49.795881984025804,3.129587179367973
02271,Dravegny,02130,02,49.24245246599901,3.639499021074103
02272,Droizy,02210,02,49.2745548528785,3.386445935890071
02273,Dury,02480,02,49.75161892428563,3.1322244676999373
02274,Ebouleau,02350,02,49.67828596854841,3.8870667998220467
02275,Effry,02500,02,49.91912378473981,3.987868261240934
02276,Englancourt,02260,02,49.925089905471395,3.8080554808343337
02277,Epagny,02290,02,49.47289152155432,3.256513224267425
02278,Eparcy,02500,02,49.88526253797858,4.071034612870641
02279,Epaux Bezu,02400,02,49.1021700435259,3.356285575838446
02280,Epieds,02400,02,49.102329243328825,3.4578500889789687
02282,Eppes,02840,02,49.550907517209325,3.739746313442617
02283,Erlon,02250,02,49.73302415782771,3.707323557792371
02284,Erloy,02260,02,49.92041785422144,3.8394138038456083
02286,Esqueheries,02170,02,49.97788102341798,3.758426873722827
02287,Essigny Le Grand,02690,02,49.77424516080169,3.2732473099955586
02288,Essigny Le Petit,02100,02,49.89853516293674,3.3686191873209914
02289,Essises,02570,02,48.96736178144528,3.41623441053538
02290,Essomes Sur Marne,02400,02,49.0330067284567,3.3426538143650575
02291,Estrees,02420,02,49.968612224026714,3.2801833488660144
02292,Etampes Sur Marne,02400,02,49.031906889405484,3.417453337250742
02293,Etaves Et Bocquiaux,02110,02,49.93097520871609,3.4519043558475224
02294,Etouvelles,02000,02,49.517142982441875,3.5807445339942796
02295,Etreaupont,02580,02,49.90137787750008,3.939889997422447
02296,Etreillers,02590,02,49.83085700055111,3.156541913048075
02297,Etrepilly,02400,02,49.08246206379761,3.351474931632941
02298,Etreux,02510,02,49.998459804176846,3.655407628931675
02299,Evergnicourt,02190,02,49.45731411726432,4.039036230671998
02302,Faverolles,02600,02,49.225470031856425,3.1826968342016233
02303,Fayet,02100,02,49.87100143862765,3.2532596528538393
02305,Fere En Tardenois,02130,02,49.18331663230396,3.512569229280142
02308,Fesmy Le Sart,02450,02,50.04769683303678,3.697198445437735
02309,Festieux,02840,02,49.52545517562281,3.760885423007052
02310,Fieulaine,02110,02,49.89740765047488,3.445049646358382
02313,Flavigny Le Grand Et Beaurain,02120,02,49.88683721782848,3.6740808149865183
02315,Flavy Le Martel,02520,02,49.70855259604629,3.1921494376612447
02316,Fleury,02600,02,49.26786163657533,3.155272309088173
02317,Fluquieres,02590,02,49.79945433233816,3.1568896325137246
02318,Folembray,02670,02,49.55004809240771,3.289623065221355
02319,Fonsomme,02110,02,49.89976160502184,3.3961083201413764
02320,Fontaine Les Clercs,02680,02,49.80909408369619,3.2126581888927053
02321,Fontaine Les Vervins,02140,02,49.85121459091353,3.908406812834793
02322,Fontaine Notre Dame,02110,02,49.88102858199146,3.423957353035095
02323,Fontaine Uterte,02110,02,49.92661926318769,3.3688678740962903
02324,Fontenelle,02170,02,50.02991563438164,3.8489381340765156
02326,Fontenoy,02290,02,49.41080330418322,3.1936219754376114
02327,Foreste,02590,02,49.80562117990629,3.095224070425973
02328,Fossoy,02650,02,49.04255730544362,3.482090877065729
02329,Fourdrain,02870,02,49.61702499999991,3.456939197986388
02330,Francilly Selency,02760,02,49.85582505791233,3.229623119747127
02331,Franqueville,02140,02,49.81874636758973,3.797403508812812
02332,Fresnes En Tardenois,02130,02,49.14475832973558,3.5511149141186698
02333,Fresnes Sous Coucy,02380,02,49.552298342578595,3.3678100651574496
02334,Fresnoy Le Grand,02230,02,49.955328217823734,3.4170084293766
02335,Fressancourt,02800,02,49.62901578393583,3.428851905994846
02336,Frieres Faillouel,02700,02,49.684112469263354,3.236648914844205
02337,Froidestrees,02260,02,49.94321680283343,3.9097303224093225
02338,Froidmont Cohartille,02270,02,49.679270640345635,3.720045751540006
02339,Gandelu,02810,02,49.07960483519664,3.1782199368479347
02340,Gauchy,02430,02,49.82326106294725,3.2846124975285926
02341,Gercy,02140,02,49.81447256816595,3.872634856260488
02342,Gergny,02260,02,49.93394100348815,3.930037623186453
02343,Germaine,02590,02,49.813476919539994,3.120654918980589
02345,Gibercourt,02440,02,49.7426238603442,3.28402917355425
02346,Gizy,02350,02,49.61175986220037,3.76611527765115
02347,Gland,02400,02,49.059019130970285,3.4602314789188484
02349,Goudelancourt Les Berrieux,02820,02,49.492289682597715,3.856837438447637
02350,Goudelancourt Les Pierrepont,02350,02,49.67980327688212,3.852925671505793
02351,Goussancourt,02130,02,49.16358923888036,3.654143595036712
02352,Gouy,02420,02,49.99377123464728,3.261782658739306
02665,Grand Rozoy,02210,02,49.241557533903745,3.3813347492166446
02783,Grand Verly,02120,02,49.94456985881027,3.5814417650478916
02353,Grandlup Et Fay,02350,02,49.653793310380586,3.737839057860649
02354,Grandrieux,02360,02,49.73119992159638,4.186161239622236
02355,Gricourt,02100,02,49.88760499599253,3.2394092393016587
02356,Grisolles,02210,02,49.12984274949387,3.37180226644591
02357,Gronard,02140,02,49.797160510981385,3.877475801296111
02358,Grougis,02110,02,49.9500780733682,3.5280562614896835
02359,Grugies,02680,02,49.81055403236163,3.278704641565213
02361,Guise,02120,02,49.89728667246805,3.6228634964608095
02362,Guivry,02300,02,49.65044043039801,3.119619586643399
02363,Guny,02300,02,49.511715413461495,3.26407324252477
02364,Guyencourt,02160,02,49.357886314443,3.841178896799504
02366,Hannapes,02510,02,49.97621285756709,3.616251774616562
02367,Happencourt,02480,02,49.78138464477743,3.183757884103019
02368,Haramont,02600,02,49.28615179092914,3.021904931152143
02369,Harcigny,02140,02,49.808067895021935,3.9767189101762
02370,Hargicourt,02420,02,49.96699891819631,3.1884177057306804
02371,Harly,02100,02,49.84035363994238,3.334741467715474
02372,Hartennes Et Taux,02210,02,49.27945014563689,3.358804393215358
02373,Hary,02140,02,49.79799882457315,3.9154433866852085
02375,Hautevesnes,02810,02,49.11395569959124,3.2317402046404866
02376,Hauteville,02120,02,49.888019185754096,3.5249819241002243
02377,Haution,02140,02,49.87088423439468,3.8351713045351254
02380,Hinacourt,02440,02,49.746243121961555,3.294307699033123
02381,Hirson,02500,02,49.937947342818376,4.113216732736063
02382,Holnon,02760,02,49.86095039078312,3.2007427760523877
02383,Homblieres,02720,02,49.856911623328486,3.370873895825535
02384,Houry,02140,02,49.78711978181587,3.8501898699142325
02385,Housset,02250,02,49.79413453333202,3.695790587835453
02386,Iron,02510,02,49.95165282360232,3.6655631442228995
02387,Itancourt,02240,02,49.803026489856045,3.350127110655479
02388,Iviers,02360,02,49.788051846289676,4.139247076253213
02389,Jaulgonne,02850,02,49.08839870175553,3.5315142907612564
02390,Jeancourt,02490,02,49.93076133059185,3.145860438452286
02391,Jeantes,02140,02,49.81420110991246,4.070986080433097
02392,Joncourt,02420,02,49.96041021637096,3.3042567873290443
02393,Jouaignes,02220,02,49.294686842494215,3.5293609953867593
02395,Jumencourt,02380,02,49.51507652612411,3.3483578347649203
02396,Jumigny,02160,02,49.40811202494082,3.725568524987187
02397,Jussy,02480,02,49.716840868217794,3.2356961811356753
02398,Juvigny,02880,02,49.44882924785063,3.3178303903678668
02399,Juvincourt Et Damary,02190,02,49.45041371833783,3.8903558878225515
02281,L Epine Aux Bois,02540,02,48.898766637173196,3.4451824011527616
02109,La Bouteille,02140,02,49.87381886316798,3.960174475401656
02141,La Capelle,02260,02,49.970495165589455,3.9145872217248447
02162,La Chapelle Sur Chezy,02570,02,48.9495064766656,3.3749800571274524
02241,La Croix Sur Ourcq,02210,02,49.15892634662644,3.350172679822542
02304,La Fere,02800,02,49.66831840367461,3.369416248379398
02306,La Ferte Chevresis,02270,02,49.745523249616255,3.550601046503389
02307,La Ferte Milon,02460,02,49.172927453211955,3.1440665488341972
02312,La Flamengrie,02260,02,50.00211434489519,3.9205243786681145
02378,La Herie,02500,02,49.882837217878375,4.041389552690802
02454,La Malmaison,02190,02,49.51677326169559,3.9950572600494283
02545,La Neuville Bosmont,02250,02,49.715190177508404,3.8345778588188413
02546,La Neuville En Beine,02300,02,49.675873271967255,3.1582681522666394
02547,La Neuville Housset,02250,02,49.78994344658353,3.7291489750848155
02548,La Neuville Les Dorengt,02450,02,49.98321141872724,3.6850899609109176
02705,La Selve,02150,02,49.57064842000112,3.9946440557297147
02759,La Vallee Au Ble,02140,02,49.85717510440411,3.7939868882701786
02760,La Vallee Mulatre,02110,02,50.025882625350235,3.5610130953149053
02802,La Ville Aux Bois Les Dizy,02340,02,49.662914684091824,3.988220652076423
02803,La Ville Aux Bois Les Pontavert,02160,02,49.427842959470546,3.8536225964168045
02400,Laffaux,02880,02,49.45063563080771,3.435628705086871
02401,Laigny,02140,02,49.86343288649332,3.8573278283325534
02402,Lanchy,02590,02,49.829665199832874,3.0726549624236585
02403,Landifay Et Bertaignemont,02120,02,49.829285874317215,3.6040244791492047
02404,Landouzy La Cour,02140,02,49.844538130620606,3.9934176118909317
02405,Landouzy La Ville,02140,02,49.85776984383669,4.048948943341781
02406,Landricourt,02380,02,49.51039442541398,3.3716877091569772
02407,Laniscourt,02000,02,49.54607543249132,3.5335960840017284
02408,Laon,02000,02,49.57108953491184,3.612949672478678
02409,Lappion,02150,02,49.59288738417103,3.9689475589404686
02410,Largny Sur Automne,02600,02,49.26270989358894,3.05590866281526
02411,Latilly,02210,02,49.15397788627517,3.312258156845163
02412,Launoy,02210,02,49.263228687902085,3.403351835797384
02413,Laval En Laonnois,02860,02,49.50296389956191,3.586166665762302
02414,Lavaqueresse,02450,02,49.94533181420355,3.7162578538969333
02415,Laversine,02600,02,49.35406562680956,3.147529130470144
02143,Le Catelet,02420,02,50.00080678429886,3.2425441284137566
02164,Le Charmel,02850,02,49.1105780074146,3.54463096681983
02379,Le Herie La Vieville,02120,02,49.82135932879925,3.6543835322253786
02558,Le Nouvion En Thierache,02170,02,50.00973049653631,3.807953877373855
02606,Le Plessier Huleu,02210,02,49.23906350912122,3.348137944455172
02731,Le Sourd,02140,02,49.86641207119128,3.751758617920494
02743,Le Thuel,02340,02,49.64296681661753,4.083418288350476
02782,Le Verguier,02490,02,49.92567797712725,3.1725885544714205
02374,Lehaucourt,02420,02,49.912226249169805,3.277688552805929
02416,Leme,02140,02,49.84218818404049,3.758027683921336
02417,Lempire,02420,02,49.99763130487899,3.175250740695308
02418,Lerzy,02260,02,49.950387877958065,3.8831344809579775
02038,Les Autels,02360,02,49.7603259193361,4.224014291773226
02439,Les Septvallons,02160,02,49.35550274998367,3.677646676450089
02419,Leschelle,02170,02,49.962953620802715,3.7739031770233886
02420,Lesdins,02100,02,49.903627015800254,3.312194738650849
02421,Lesges,02220,02,49.30804564621789,3.4981630341719985
02422,Lesquielles St Germain,02120,02,49.93121890824908,3.6276830545548178
02423,Leuilly Sous Coucy,02380,02,49.47548492747073,3.3500511074707706
02424,Leury,02880,02,49.42456624282387,3.3414798484921815
02425,Leuze,02500,02,49.85860341758391,4.167476352281373
02426,Levergies,02420,02,49.934227321918485,3.312194628132249
02427,Lhuys,02220,02,49.273393608425664,3.543090612307081
02428,Licy Clignon,02810,02,49.10260441139222,3.2654338016352833
02429,Lierval,02860,02,49.487985447064766,3.6218354834308757
02430,Liesse Notre Dame,02350,02,49.61153678233789,3.82711737464235
02431,Liez,02700,02,49.693313392094794,3.30021891227043
02432,Lime,02220,02,49.324859463154255,3.5558759227676306
02433,Lislet,02340,02,49.67625043140925,4.01980512612738
02435,Logny Les Aubenton,02500,02,49.83198688801798,4.223454177414795
02438,Longpont,02600,02,49.28565232410901,3.220227379176827
02440,Lor,02190,02,49.53082661381193,4.054431473284993
02441,Louatre,02600,02,49.25662062565617,3.2428754793129064
02442,Loupeigne,02130,02,49.24365744524407,3.525111126901018
02443,Lucy Le Bocage,02400,02,49.05562820788356,3.2755073172284535
02444,Lugny,02140,02,49.78024503849105,3.811416216701325
02445,Luzoir,02500,02,49.93150700103773,3.9596890359072394
02446,Ly Fontaine,02440,02,49.732902717489836,3.310969802235566
02447,Maast Et Violaine,02220,02,49.29354353069826,3.453510662380855
02448,Machecourt,02350,02,49.65088977217103,3.8415394602858868
02449,Macogny,02470,02,49.15698942831045,3.218637260258393
02450,Macquigny,02120,02,49.87142341632713,3.5689979090202506
02451,Magny La Fosse,02420,02,49.93711119754627,3.2740065342178895
02452,Maissemy,02490,02,49.89243041692484,3.185656801880136
02453,Maizy,02160,02,49.37541321936718,3.713410354895612
02455,Malzy,02120,02,49.92098461970813,3.7316969160217317
02456,Manicamp,02300,02,49.565268004816744,3.1805434861446256
02457,Marchais,02350,02,49.58668019639758,3.819020031053423
02459,Marcy,02720,02,49.85176576036482,3.415938429530242
02460,Marcy Sous Marle,02250,02,49.74870832898429,3.734649597927946
02461,Marest Dampcourt,02300,02,49.59418739034663,3.1488042143849313
02462,Mareuil En Dole,02130,02,49.24461858659161,3.562663774908397
02463,Marfontaine,02140,02,49.808497299773066,3.7641487887489125
02464,Margival,02880,02,49.43221318047904,3.4072359846073113
02465,Marigny En Orxois,02810,02,49.05514828086818,3.2195307759979723
02467,Marizy St Mard,02470,02,49.182303026715495,3.227020219513739
02466,Marizy Ste Genevieve,02470,02,49.18098126060196,3.197063391400948
02468,Marle,02250,02,49.744357517743666,3.765416653640626
02469,Marly Gomont,02120,02,49.889377009152184,3.7856271526236718
02470,Martigny,02500,02,49.86721836877218,4.135688089299728
02471,Martigny Courpierre,02860,02,49.49193116375095,3.6872414433338268
02472,Mauregny En Haye,02820,02,49.54371440650941,3.7967558124666
02473,Mayot,02800,02,49.709313615953086,3.396191152932858
02474,Mennessis,02700,02,49.69151928370841,3.272616238761705
02476,Mennevret,02630,02,49.99245374214381,3.5567564811568992
02477,Mercin Et Vaux,02200,02,49.36745994212391,3.2693488729063005
02478,Merlieux Et Fouquerolles,02000,02,49.5166186888208,3.4989685590585697
02480,Mesbrecourt Richecourt,02270,02,49.71323289531523,3.536681303434131
02481,Mesnil St Laurent,02720,02,49.831208154963605,3.3656772689734566
02482,Meurival,02160,02,49.358272262609745,3.7620995971087217
02483,Mezieres Sur Oise,02240,02,49.79026703812069,3.3863680065942674
02484,Mezy Moulins,02650,02,49.063383443862364,3.512527301270881
02485,Missy Aux Bois,02200,02,49.33526743708836,3.2491247723555796
02486,Missy Les Pierrepont,02350,02,49.62912084519645,3.786203045724349
02487,Missy Sur Aisne,02880,02,49.38489965751562,3.4398552236150612
02488,Molain,02110,02,50.03200457534905,3.530041362464303
02489,Molinchart,02000,02,49.56137249788453,3.5406805171150735
02490,Monampteuil,02000,02,49.4714867236313,3.573148315787737
02491,Monceau Le Neuf Et Faucouzy,02270,02,49.782624695720386,3.6310563840630614
02493,Monceau Le Waast,02840,02,49.62281410354401,3.718198907759644
02492,Monceau Les Leups,02270,02,49.66208094323831,3.4812938625503644
02494,Monceau Sur Oise,02120,02,49.90993490854727,3.6978818269616527
02495,Mondrepuis,02500,02,49.962914329300574,4.058740776008558
02496,Monnes,02470,02,49.147331911799796,3.228247023831316
02497,Mons En Laonnois,02000,02,49.537232573719024,3.5531464796573813
02503,Mont D Origny,02390,02,49.85314032511085,3.5260976004568065
02520,Mont Notre Dame,02220,02,49.29329746878733,3.580563460105356
02522,Mont St Jean,02360,02,49.79412408913019,4.210261342814318
02523,Mont St Martin,02220,02,49.27542857079594,3.6409198492681174
02524,Mont St Pere,02400,02,49.080898965713345,3.477553500859388
02498,Montaigu,02820,02,49.55503727724365,3.844717196908518
02499,Montbavin,02000,02,49.53011458322522,3.513541995201347
02500,Montbrehain,02110,02,49.96356945768668,3.3563698424703388
02501,Montchalons,02860,02,49.51372689927696,3.7228050384512525
02502,Montcornet,02340,02,49.689660617658134,4.026205532641619
02504,Montescourt Lizerolles,02440,02,49.736184605629035,3.258119491554641
02505,Montfaucon,02540,02,48.95014775981105,3.4312448128896205
02506,Montgobert,02600,02,49.28916874323373,3.176447138386928
02507,Montgru St Hilaire,02210,02,49.17698417652147,3.3259622021138595
02508,Monthenault,02860,02,49.4900348862402,3.655532006599588
02509,Monthiers,02400,02,49.10869518429497,3.2952145080957056
02510,Monthurel,02330,02,49.02861419070794,3.5504586252780292
02511,Montigny En Arrouaise,02110,02,49.9139915981325,3.485782422744403
02512,Montigny L Allier,02810,02,49.12449664236179,3.1053019854159913
02513,Montigny Le Franc,02250,02,49.687628702540096,3.918831285573215
02514,Montigny Lengrain,02290,02,49.37408979512109,3.09751572346039
02515,Montigny Les Conde,02330,02,48.982030225263266,3.566476251097985
02516,Montigny Sous Marle,02250,02,49.73995430480133,3.805087147838506
02517,Montigny Sur Crecy,02270,02,49.712558944975875,3.5838524016085067
02518,Montlevon,02330,02,48.957716108784425,3.5177566244667564
02519,Montloue,02340,02,49.6644129699654,4.065188176811076
02521,Montreuil Aux Lions,02310,02,49.025807355720914,3.197284777826911
02525,Morcourt,02100,02,49.87828904053076,3.337750919739655
02526,Morgny En Thierache,02360,02,49.75572831758767,4.078390714157987
02527,Morsain,02290,02,49.462031898425785,3.189607351944563
02528,Mortefontaine,02600,02,49.33655973219264,3.0800263694764247
02529,Mortiers,02270,02,49.69664164899581,3.665777980926256
02530,Moulins,02160,02,49.42086198760849,3.6788514836754906
02531,Moussy Verneuil,02160,02,49.4144750828181,3.640328441284498
02532,Moy De L Aisne,02610,02,49.75035070029593,3.3511956825645743
02533,Muret Et Crouttes,02210,02,49.278876218095625,3.4381705892862824
02534,Muscourt,02160,02,49.358854416641975,3.744061272931358
02535,Nampcelles La Cour,02140,02,49.77751826423457,3.999914021196727
02536,Nampteuil Sous Muret,02200,02,49.30495492832455,3.434358609912362
02537,Nanteuil La Fosse,02880,02,49.43440382574545,3.44564329627815
02538,Nanteuil Notre Dame,02210,02,49.19120598242301,3.410478227412585
02539,Nauroy,02420,02,49.95142093293575,3.2588961168206074
02540,Nesles La Montagne,02400,02,49.000770179840615,3.4485672326180006
02541,Neufchatel Sur Aisne,02190,02,49.4387146512538,4.023469495103253
02542,Neuflieux,02300,02,49.61727716496394,3.1595615462965685
02543,Neuilly St Front,02470,02,49.16501948299855,3.2665594186522164
02544,Neuve Maison,02500,02,49.928122789372665,4.039401171475221
02549,Neuville St Amand,02100,02,49.82006761789124,3.3394501712410594
02550,Neuville Sur Ailette,02860,02,49.47051295239256,3.698603711794629
02551,Neuville Sur Margival,02880,02,49.45415928369855,3.398518201926038
02552,Neuvillette,02390,02,49.85532601362725,3.4695186483050433
02553,Nizy Le Comte,02150,02,49.57327056524913,4.034827078487618
02555,Nogent L Artaud,02310,02,48.94253954815371,3.331266521886274
02554,Nogentel,02400,02,49.01515644012222,3.4042223181629505
02556,Noircourt,02340,02,49.66911670464723,4.094783648170153
02557,Noroy Sur Ourcq,02600,02,49.203056908757404,3.2069963483034876
02559,Nouvion Et Catillon,02270,02,49.706916203722685,3.4954186458948775
02560,Nouvion Le Comte,02800,02,49.70859494973881,3.459031323942848
02561,Nouvion Le Vineux,02860,02,49.510760253525916,3.605229537313928
02562,Nouvron Vingre,02290,02,49.43488367717339,3.189937316627055
02563,Noyales,02120,02,49.905598461876416,3.536723399586264
02565,Oeuilly,02160,02,49.39299520369269,3.6817982454358025
02566,Ognes,02300,02,49.616009102459635,3.189691557764162
02567,Ohis,02500,02,49.92158635407972,4.007776073650096
02568,Oigny En Valois,02600,02,49.212986329403975,3.1287317418102907
02569,Oisy,02450,02,50.022589100217346,3.650198896255417
02570,Ollezy,02480,02,49.72874185667381,3.1465167800562073
02571,Omissy,02100,02,49.88001549997392,3.2968698435746164
02572,Orainville,02190,02,49.37604865524574,4.012326526796359
02573,Orgeval,02860,02,49.50468349197742,3.70109077677916
02574,Origny En Thierache,02550,02,49.88454333528374,4.013330610710109
02575,Origny Ste Benoite,02390,02,49.82699398847487,3.5339788078372107
02576,Osly Courtil,02290,02,49.40000102282261,3.2362668078507513
02577,Ostel,02370,02,49.429368163662765,3.5658791131714285
02578,Oulches La Vallee Foulon,02160,02,49.430258409442914,3.740562729913907
02579,Oulchy La Ville,02210,02,49.20850173146569,3.342014567854857
02580,Oulchy Le Chateau,02210,02,49.20852560156871,3.3828489476307437
02581,Paars,02220,02,49.332082721432315,3.6023644099601975
02582,Paissy,02160,02,49.42559217013566,3.700006986064519
02583,Pancy Courtecon,02860,02,49.46314790641469,3.649526833098324
02584,Papleux,02260,02,50.016905972503096,3.8798745772345256
02585,Parcy Et Tigny,02210,02,49.26925653809597,3.329094344641284
02586,Parfondeval,02360,02,49.74305011759709,4.162377432340633
02587,Parfondru,02840,02,49.540031845451594,3.7062115416806014
02588,Pargnan,02160,02,49.39342764843758,3.700284235506275
02589,Pargny Et Filain,02000,02,49.458300102707476,3.549110902194502
02590,Pargny La Dhuys,02330,02,48.95815369024443,3.5620175698058265
02591,Pargny Les Bois,02270,02,49.7313747532567,3.61828987655318
02592,Parpeville,02240,02,49.79617108333083,3.565915173414664
02593,Pasly,02200,02,49.40171653220816,3.296900037839527
02594,Passy En Valois,02470,02,49.164995816392285,3.18140555322138
02595,Passy Sur Marne,02850,02,49.06796751904477,3.5747294583482496
02596,Pavant,02310,02,48.95524463702195,3.284263392594148
02598,Pernant,02200,02,49.374515364921635,3.2335859790472754
02784,Petit Verly,02630,02,49.96087252973461,3.5645704423022426
02599,Pierremande,02300,02,49.56621780597415,3.2534834927543397
02600,Pierrepont,02350,02,49.647203287132,3.7843195193251375
02601,Pignicourt,02190,02,49.40637044615279,4.0233258281579
02602,Pinon,02320,02,49.48733195206866,3.4645953328352035
02604,Pithon,02480,02,49.75576837823687,3.1047207935311465
02605,Pleine Selve,02240,02,49.795151083807774,3.5262739265117533
02607,Ploisy,02200,02,49.33201103365753,3.2734964293122726
02608,Plomion,02140,02,49.81430859891267,4.027302804544457
02609,Ployart Et Vaurseine,02860,02,49.49522182951442,3.7358097326728523
02610,Pommiers,02200,02,49.393598753531435,3.2804603895707745
02612,Pont Arcy,02160,02,49.3918040185703,3.621498638736126
02616,Pont St Mard,02380,02,49.49669685004784,3.2785495485590745
02613,Pontavert,02160,02,49.41895844441231,3.8271278674704927
02614,Pontru,02490,02,49.92161433221003,3.200679191253159
02615,Pontruet,02490,02,49.91899629079914,3.232602636325356
02617,Pouilly Sur Serre,02270,02,49.67839655759296,3.5849683077225176
02618,Premont,02110,02,50.01566404863395,3.3927876749146284
02619,Premontre,02320,02,49.54930909432241,3.41529273253082
02620,Presles Et Boves,02370,02,49.38727286797431,3.5379152015793682
02621,Presles Et Thierny,02860,02,49.51297736659847,3.6231202130420517
02622,Priez,02470,02,49.13080444839386,3.2615680645080856
02623,Prisces,02140,02,49.772239147073776,3.8603789903793366
02624,Proisy,02120,02,49.889127824619905,3.754816052489929
02625,Proix,02120,02,49.902032117014244,3.576879345856748
02626,Prouvais,02190,02,49.48002870061647,3.969995125010966
02627,Proviseux Et Plesnoy,02190,02,49.47653023868373,4.017654080475552
02628,Puiseux En Retz,02600,02,49.29385012464253,3.1356589996309596
02629,Puisieux Et Clanlieu,02120,02,49.84852648012499,3.6578814775848336
02631,Quierzy,02300,02,49.56377535336212,3.1466141669961005
02632,Quincy Basse,02380,02,49.509117091119734,3.3823569884409803
02633,Quincy Sous Le Mont,02220,02,49.30817762827262,3.557600828310065
02634,Raillimont,02360,02,49.70277732669658,4.161200276030517
02635,Ramicourt,02110,02,49.96112775279268,3.333996935153408
02636,Regny,02240,02,49.8335910995461,3.4202404895747365
02637,Remaucourt,02100,02,49.89789294190592,3.352789801501719
02638,Remies,02270,02,49.67988706628182,3.524224786086779
02639,Remigny,02440,02,49.71221661049151,3.292468572830166
02640,Renansart,02240,02,49.733459319646514,3.4586528786482855
02641,Renneval,02340,02,49.737858866925905,4.0410873777937955
02642,Resigny,02360,02,49.74110996565088,4.2097206556277875
02643,Ressons Le Long,02290,02,49.38292797339153,3.151780011170443
02644,Retheuil,02600,02,49.31859451268822,3.0009991567748076
02645,Reuilly Sauvigny,02850,02,49.05251873624203,3.5616217208188123
02647,Ribeauville,02110,02,50.03698564369033,3.5903391393876056
02648,Ribemont,02240,02,49.78532240749966,3.470653779373902
02649,Rocourt St Martin,02210,02,49.14272529272867,3.3914488423770326
02650,Rocquigny,02260,02,50.01676920230714,3.972414953720704
02651,Rogecourt,02800,02,49.6493469655846,3.4140553107881946
02652,Rogny,02140,02,49.76815181223611,3.8257726895083923
02653,Romeny Sur Marne,02310,02,48.984904766448835,3.334345488223359
02654,Romery,02120,02,49.88989313073141,3.7361973563706607
02655,Roncheres,02130,02,49.13888166529737,3.603069879550109
02656,Roucy,02160,02,49.37868202430343,3.8161746957140936
02657,Rougeries,02140,02,49.80596085283575,3.789572003083043
02658,Roupy,02590,02,49.8121219212347,3.1823392329340843
02659,Rouvroy,02100,02,49.85832390816685,3.331504893989078
02660,Rouvroy Sur Serre,02360,02,49.71630791565694,4.177585832497856
02661,Royaucourt Et Chailvet,02000,02,49.51214984336367,3.5390213565927184
02662,Rozet St Albin,02210,02,49.197936079344935,3.294369999439848
02663,Rozieres Sur Crise,02200,02,49.32278041522349,3.36441263588563
02664,Rozoy Bellevalle,02540,02,48.92686643759734,3.4482327620912843
02666,Rozoy Sur Serre,02360,02,49.70363373877403,4.134844308623276
02667,Saconin Et Breuil,02200,02,49.35092314609884,3.2459273944109115
02668,Sains Richaumont,02120,02,49.83041520585377,3.70177701117748
02697,Samoussy,02840,02,49.590623136240865,3.743246749937689
02698,Sancy Les Cheminots,02880,02,49.43864731051518,3.476834105711686
02699,Saponay,02130,02,49.2117453490372,3.489567556761913
02701,Saulchery,02310,02,48.9818656403033,3.311588662459575
02702,Savy,02590,02,49.83360069468037,3.197700505420893
02703,Seboncourt,02110,02,49.96346123894952,3.494872074584758
02704,Selens,02300,02,49.49746467466461,3.201760067605756
02706,Septmonts,02200,02,49.33750344419755,3.36408006975548
02707,Septvaux,02410,02,49.57043197924133,3.385607559471444
02708,Sequehart,02420,02,49.93010431589119,3.3418915727514147
02709,Serain,02110,02,50.02389800724561,3.364852685937157
02710,Seraucourt Le Grand,02790,02,49.782266168510006,3.2160156170516787
02711,Serches,02220,02,49.33221204198381,3.4491615303652647
02712,Sergy,02130,02,49.182015168462485,3.567982733503906
02713,Seringes Et Nesles,02130,02,49.21154799302899,3.5605500441199847
02714,Sermoise,02220,02,49.37172626223166,3.446282136416943
02716,Servais,02700,02,49.61940975033418,3.3421909627903825
02715,Serval,02160,02,49.35245880232404,3.68167137415988
02717,Sery Les Mezieres,02240,02,49.7656677329644,3.4241839272372534
02718,Silly La Poterie,02460,02,49.196995379349204,3.1517084316487316
02719,Sinceny,02300,02,49.59310661101187,3.266848273431958
02720,Sissonne,02150,02,49.56852958921867,3.929800479441248
02721,Sissy,02240,02,49.80891704006132,3.420554629990721
02722,Soissons,02200,02,49.37655688046146,3.323546634062671
02723,Soize,02340,02,49.697264433621584,4.082619582515246
02724,Sommelans,02470,02,49.13546454834504,3.2903117548587577
02725,Sommeron,02260,02,49.957386979207186,3.943237291263062
02726,Sommette Eaucourt,02480,02,49.72683578763347,3.1177694343910605
02727,Sons Et Roncheres,02270,02,49.76688740818447,3.6681793749187364
02728,Sorbais,02580,02,49.910439722015965,3.8808381191531387
02729,Soucy,02600,02,49.32290876097166,3.122921484086945
02730,Soupir,02160,02,49.41068090392742,3.59902380203775
02670,St Algis,02260,02,49.89464731442958,3.8257466201435797
02671,St Aubin,02300,02,49.50849398086265,3.1890941980446907
02672,St Bandry,02290,02,49.36426237977538,3.1470587990453525
02673,St Christophe A Berry,02290,02,49.42965034402924,3.1302489779815814
02674,St Clement,02360,02,49.77413212751504,4.070199683588765
02676,St Erme Outre Et Ramecourt,02820,02,49.52188615667518,3.8564157607058522
02677,St Eugene,02330,02,49.015474193446636,3.517320903142739
02679,St Gengoulph,02810,02,49.11542851415046,3.212875249278352
02680,St Gobain,02410,02,49.59662465830132,3.3939675564950926
02681,St Gobert,02140,02,49.804664434381976,3.8309689334585446
02682,St Mard,02220,02,49.38320255226179,3.589367945323696
02683,St Martin Riviere,02110,02,50.04377462962449,3.5540998773814243
02684,St Michel,02830,02,49.93103837269685,4.1499740938072645
02685,St Nicolas Aux Bois,02410,02,49.60047899673062,3.4390869560382544
02686,St Paul Aux Bois,02300,02,49.546286767506444,3.2004054029670943
02687,St Pierre Aigle,02600,02,49.31369733889015,3.1991831758701696
02688,St Pierre Les Franqueville,02140,02,49.824564247501684,3.8188785857430556
02689,St Pierremont,02250,02,49.71781421603962,3.875452877585208
02691,St Quentin,02100,02,49.84752910800161,3.2789840222520894
02693,St Remy Blanzy,02210,02,49.24715475255944,3.303440660920119
02694,St Simon,02640,02,49.74567795368531,3.181750645649047
02696,St Thomas,02820,02,49.50195168241673,3.8189906750318556
02675,Ste Croix,02820,02,49.47981675286001,3.7815111058914694
02678,Ste Genevieve,02340,02,49.724792046436065,4.074396682897071
02690,Ste Preuve,02350,02,49.61896161264768,3.9113412566462857
02732,Surfontaine,02240,02,49.74723504252452,3.4782827956286138
02734,Taillefontaine,02600,02,49.31079976687734,3.050222771940973
02735,Tannieres,02220,02,49.28711182637922,3.548276307423354
02736,Tartiers,02290,02,49.43677555108706,3.2332031958669236
02737,Tavaux Et Pontsericourt,02250,02,49.728687532466154,3.923976385104051
02738,Tergnier,02700,02,49.65615351234504,3.294890771184164
02739,Terny Sorny,02880,02,49.44945215037171,3.3677981781978277
02740,Thenailles,02140,02,49.81202683957795,3.947395734541086
02741,Thenelles,02390,02,49.83285165260718,3.459304901355853
02742,Thiernu,02250,02,49.765287725782045,3.7794509694608207
02744,Torcy En Valois,02810,02,49.083551866690726,3.273857503884291
02745,Toulis Et Attencourt,02250,02,49.69507946419709,3.7464217569353604
02746,Travecy,02800,02,49.68498079827114,3.3454149851879453
02747,Trefcon,02490,02,49.86216098160173,3.0887933628614492
02748,Trelou Sur Marne,02850,02,49.09033699152923,3.605526738615678
02749,Troesnes,02460,02,49.19837247378658,3.177269201375505
02750,Trosly Loire,02300,02,49.51667445809467,3.229812002106258
02751,Trucy,02860,02,49.472054235661616,3.6110589000769284
02752,Tugny Et Pont,02640,02,49.76759026358532,3.164163526168838
02753,Tupigny,02120,02,49.97751960866326,3.5982534232824417
02754,Ugny Le Gay,02300,02,49.66230259564572,3.156873814815265
02755,Urcel,02000,02,49.4936099762331,3.557469357420416
02756,Urvillers,02690,02,49.78953496053586,3.32027124406816
02757,Vadencourt,02120,02,49.92484148953133,3.5773940429901145
02758,Vailly Sur Aisne,02370,02,49.41235339583499,3.517414496975507
02053,Vallees En Champagne,02330,02,49.001003952925814,3.6202856701720822
02761,Variscourt,02190,02,49.41522588798813,3.982799107912496
02762,Vassens,02290,02,49.474501818559986,3.155647326357955
02763,Vasseny,02220,02,49.35738933292794,3.490920912240621
02764,Vassogne,02160,02,49.42034251868792,3.728999171126558
02765,Vaucelles Et Beffecourt,02000,02,49.521482199141104,3.5583549826764904
02766,Vaudesson,02320,02,49.477461029119084,3.487216489957758
02769,Vaux Andigny,02110,02,50.00898933212873,3.524811488452295
02772,Vaux En Vermandois,02590,02,49.82590101337047,3.1380491902234473
02768,Vauxaillon,02320,02,49.476742914005385,3.4084049585871696
02770,Vauxbuin,02200,02,49.35773920028326,3.29573215481422
02767,Vauxrezis,02200,02,49.42130773088305,3.2746716118374635
02773,Vauxtin,02220,02,49.344880014374084,3.6030815992857885
02774,Vendelles,02490,02,49.90773764780563,3.1390386544337905
02775,Vendeuil,02800,02,49.7236446841637,3.3477850698130567
02776,Vendhuile,02420,02,50.0124013608774,3.207599479613876
02777,Vendieres,02540,02,48.874827082639825,3.444865937602374
02778,Vendresse Beaulne,02160,02,49.43141761500556,3.6637400278213965
02779,Venerolles,02510,02,49.98983080636849,3.6287165002562336
02780,Venizel,02200,02,49.36892394196164,3.395351484975754
02781,Verdilly,02400,02,49.07455967193638,3.4230978966845402
02785,Vermand,02490,02,49.88401704649028,3.1554873657471623
02786,Verneuil Sous Coucy,02380,02,49.54461646267692,3.3187580855921
02787,Verneuil Sur Serre,02000,02,49.645211514526615,3.6806396424397705
02788,Versigny,02800,02,49.65707696083834,3.44346027403218
02789,Vervins,02140,02,49.837090445136724,3.922573100197508
02790,Vesles Et Caumont,02350,02,49.67672283030494,3.7921184255578666
02791,Veslud,02840,02,49.54015399146796,3.730080794206974
02792,Veuilly La Poterie,02810,02,49.08142957289715,3.218461651334014
02793,Vezaponin,02290,02,49.46658797001413,3.223496005993482
02794,Vezilly,02130,02,49.187634647073686,3.6817495719148106
02795,Vic Sur Aisne,02290,02,49.412460494700156,3.110801974975376
02796,Vichel Nanteuil,02210,02,49.1821136178859,3.296541844708044
02797,Viel Arcy,02160,02,49.37944134236256,3.6242899620586533
02798,Viels Maisons,02540,02,48.90351485673382,3.3970441347491245
02799,Vierzy,02210,02,49.28729450228337,3.2761726068802766
02800,Viffort,02540,02,48.955512134439985,3.466277727699919
02801,Vigneux Hocquet,02340,02,49.7424211387481,3.993144101238422
02817,Ville Savoye,02220,02,49.29423372235861,3.640258797316096
02804,Villemontoire,02210,02,49.30039219699944,3.320407079773149
02805,Villeneuve St Germain,02200,02,49.38086267496767,3.3595423973986263
02360,Villeneuve Sur Aisne,02190,02,49.44085854873458,3.9744105236332476
02806,Villeneuve Sur Fere,02130,02,49.17104109399048,3.4775295140517626
02807,Villequier Aumont,02300,02,49.66003580479643,3.1990942546481094
02808,Villeret,02420,02,49.95013677060965,3.185988350378512
02809,Villers Agron Aiguizy,02130,02,49.160891668676825,3.7142847591771426
02810,Villers Cotterets,02600,02,49.22367043891177,3.101683132994373
02812,Villers Helon,02600,02,49.26490476755599,3.268106272084545
02813,Villers Le Sec,02240,02,49.77010111404262,3.505026547859714
02814,Villers Les Guise,02120,02,49.925057581751915,3.682670722062065
02815,Villers St Christophe,02590,02,49.779880998753725,3.09197465082498
02816,Villers Sur Fere,02130,02,49.16793772584853,3.5302228237071747
02818,Villiers St Denis,02310,02,48.99777056421917,3.2621430666479325
02819,Vincy Reuil Et Magny,02340,02,49.715312147377816,4.046689063921262
02820,Viry Noureuil,02300,02,49.63553043824183,3.248252215753566
02821,Vivaise,02870,02,49.62378160712575,3.5633634651445414
02822,Vivieres,02600,02,49.30932280191668,3.0876796944139517
02823,Voharies,02140,02,49.787881500291455,3.791492655857811
02824,Vorges,02860,02,49.518204226118065,3.6526572471378147
02826,Voulpaix,02140,02,49.84079577519631,3.83316335115748
02827,Voyenne,02250,02,49.71294228353474,3.740758743745274
02828,Vregny,02880,02,49.4142223483321,3.4189342032554837
02829,Vuillery,02880,02,49.42922718624071,3.387160496799091
02830,Wassigny,02630,02,50.01772235453311,3.6018451114582026
02831,Watigny,02830,02,49.91927507775749,4.198986733582249
02832,Wiege Faty,02120,02,49.88522542311549,3.7191554104392295
02833,Wimy,02500,02,49.94852645662892,3.997207505511543
02834,Wissignicourt,02320,02,49.52880846765885,3.4450633952701697
