city_code,city_name,postal_code,department_code,latitude,longitude
31001,Agassac,31230,31,43.373966456350445,0.8866075548836265
31002,Aignes,31550,31,43.333382263808126,1.5865551950286876
31003,Aigrefeuille,31280,31,43.568347960714036,1.5845456515957015
31005,Alan,31420,31,43.217512428556006,0.9300573253792526
31006,Albiac,31460,31,43.55475156988919,1.7863811976471244
31007,Ambax,31230,31,43.36917597907682,0.9386852151276885
31008,Anan,31230,31,43.35409172364858,0.813851531660057
31009,Antichan De Frontignes,31510,31,42.96793726252725,0.6743519971408849
31010,Antignac,31110,31,42.83046791935514,0.587601647309009
31011,Arbas,31160,31,42.9924954643745,0.9035814132400575
31012,Arbon,31160,31,43.001720987222484,0.7310394151119515
31013,Ardiege,31210,31,43.064671723603155,0.642376245421588
31014,Arguenos,31160,31,42.9588639169567,0.7284355403280924
31015,Argut Dessous,31440,31,42.89238688982213,0.715112720948783
31017,Arlos,31440,31,42.878179928867866,0.693325298526955
31018,Arnaud Guilhem,31360,31,43.14662259608256,0.9009816918916425
31019,Artigue,31110,31,42.826760125458236,0.6409105296272051
31020,Aspet,31160,31,43.012666042573116,0.8075876676608245
31021,Aspret Sarrat,31800,31,43.069416314805764,0.7180786593227866
31022,Aucamville,31140,31,43.671376843862035,1.424334014743029
31023,Aulon,31420,31,43.18876011860411,0.8107678524274795
31024,Auragne,31190,31,43.392224361692,1.50999737042292
31025,Aureville,31320,31,43.479426703983236,1.4574214790369175
31026,Auriac Sur Vendinelle,31460,31,43.51721550263345,1.825780860618323
31027,Auribail,31190,31,43.34850965812018,1.3724361452327392
31028,Aurignac,31420,31,43.21333071432003,0.870118782930845
31029,Aurin,31570,31,43.53548593949521,1.680430623084328
31030,Ausseing,31260,31,43.156058160799965,1.0283510572693175
31031,Ausson,31210,31,43.091659507886014,0.589350629911986
31032,Aussonne,31840,31,43.68410375708103,1.327797036692288
31033,Auterive,31190,31,43.35786002370331,1.482181282817114
31034,Auzas,31360,31,43.17371250920113,0.8947978868579555
31035,Auzeville Tolosane,31320,31,43.528526737611884,1.4896204982038646
31036,Auzielle,31650,31,43.541147887463325,1.569077368416879
31037,Avignonet Lauragais,31290,31,43.37733625501785,1.7777145308227849
31004,Ayguesvives,31450,31,43.42356325945836,1.5964551732283851
31038,Azas,31380,31,43.721645171407914,1.676262261610232
31039,Bachas,31420,31,43.24947608983915,0.940765163274783
31040,Bachos,31440,31,42.90075039704803,0.6069823542682264
31041,Bagiry,31510,31,42.980296104470185,0.6235486156764245
31042,Bagneres De Luchon,31110,31,42.749239200530624,0.6263599613123936
31043,Balesta,31580,31,43.202839591335795,0.5643498737420596
31044,Balma,31130,31,43.610830875251715,1.5036887781070711
31045,Barbazan,31510,31,43.03441974403776,0.6222548802018355
31046,Baren,31440,31,42.86771618900778,0.635644464696212
31047,Bax,31310,31,43.22691313808407,1.2892211324929779
31048,Baziege,31450,31,43.461448655141176,1.629402379939738
31049,Bazus,31380,31,43.73470313624975,1.5231795329820992
31050,Beauchalot,31360,31,43.113985661907776,0.8679623648868255
31051,Beaufort,31370,31,43.4544814649709,1.1068879517500618
31052,Beaumont Sur Leze,31870,31,43.37921662337679,1.356963292728329
31053,Beaupuy,31850,31,43.65174036076692,1.556040059364756
31054,Beauteville,31290,31,43.34892028473894,1.7336230585073695
31055,Beauville,31460,31,43.468554795620975,1.7712750189179314
31056,Beauzelle,31700,31,43.667999728384096,1.3752938672854529
31057,Belberaud,31450,31,43.504450329585026,1.5709296907794805
31058,Belbeze De Lauragais,31450,31,43.43747738204899,1.5555563219536335
31059,Belbeze En Comminges,31260,31,43.13255022453765,1.0272734462481805
31060,Belesta En Lauragais,31540,31,43.43837812732398,1.831530135285315
31061,Bellegarde Ste Marie,31530,31,43.677881565015994,1.0911782834886021
31062,Bellesserre,31480,31,43.78699802124438,1.1013703970692525
31063,Benque,31420,31,43.25990748826018,0.918278373731236
31064,Benque Dessous Et Dessus,31110,31,42.8213640599033,0.5413522963047955
31065,Berat,31370,31,43.37708394048888,1.1741633017822415
31066,Bessieres,31660,31,43.79397958188999,1.584572721518213
31067,Bezins Garraux,31440,31,42.93721173714782,0.708344941497842
31068,Billiere,31110,31,42.81958794527162,0.530927603793361
31590,Binos,31440,31,42.90476793369043,0.6094956581685296
31069,Blagnac,31700,31,43.641019902542965,1.3770272671332315
31070,Blajan,31350,31,43.251944613967055,0.6488073261639524
31071,Bois De La Pierre,31390,31,43.34037814711368,1.161128621212376
31072,Boissede,31230,31,43.4073516188537,0.827881560394376
31073,Bondigoux,31340,31,43.845512292660175,1.545484414688072
31074,Bonrepos Riquet,31590,31,43.67567348502956,1.6229063734672715
31075,Bonrepos Sur Aussonnelle,31470,31,43.54293950337204,1.1394721398898104
31076,Bordes De Riviere,31210,31,43.12413587961454,0.6346855895682595
31078,Boudrac,31580,31,43.17898727446824,0.504251065187371
31079,Bouloc,31620,31,43.795836127651505,1.4192340814125874
31080,Boulogne Sur Gesse,31350,31,43.29034827177779,0.648981192532452
31081,Bourg D Oueil,31110,31,42.861616016344044,0.48587961939753854
31082,Bourg St Bernard,31570,31,43.60686342218568,1.7027849601668716
31083,Boussan,31420,31,43.24165528930784,0.8702230006494975
31084,Boussens,31360,31,43.17473429050382,0.959358252255039
31085,Boutx,31160,31,42.91689486270556,0.7721842292915725
31086,Bouzin,31420,31,43.18838130808565,0.8865246211714934
31087,Bragayrac,31470,31,43.48939074953261,1.0679820363995556
31088,Brax,31490,31,43.61537878060095,1.2308537792688972
31089,Bretx,31530,31,43.70656585564046,1.1978731345038465
31090,Brignemont,31480,31,43.76637696572723,0.9992759363520825
31091,Bruguieres,31150,31,43.725847272815614,1.4105134208659824
31092,Burgalays,31440,31,42.88563827725348,0.6364353294045675
31094,Buzet Sur Tarn,31660,31,43.772116961094994,1.6098929646608804
31095,Cabanac Cazaux,31160,31,43.035366579635564,0.7416293179877285
31096,Cabanac Seguenville,31480,31,43.78977552750776,1.021231601413425
31098,Cadours,31480,31,43.72502355942649,1.048947211368066
31099,Caignac,31560,31,43.3181763190951,1.706975525923557
31100,Calmont,31560,31,43.28320791089523,1.625141445199751
31101,Cambernard,31470,31,43.46427298270615,1.178492326635554
31102,Cambiac,31460,31,43.491103324643944,1.7927781506407636
31103,Canens,31310,31,43.21780684949567,1.336714767417224
31104,Capens,31410,31,43.335417656010264,1.260746537508004
31105,Caragoudes,31460,31,43.4981926161632,1.7090392930525125
31106,Caraman,31460,31,43.532361334635404,1.7486809712875324
31107,Carbonne,31390,31,43.30630112472364,1.2320885255090954
31108,Cardeilhac,31350,31,43.1963878553984,0.6788103789718315
31109,Cassagnabere Tournas,31420,31,43.229557446929626,0.8007897980166025
31110,Cassagne,31260,31,43.12418500422129,0.99196104269631
31111,Castagnac,31310,31,43.235178290942294,1.345441695012147
31112,Castagnede,31260,31,43.050998499069664,0.9765377013820704
31113,Castanet Tolosan,31320,31,43.50832485505359,1.506865725936434
31114,Castelbiague,31160,31,43.03314903255821,0.9284091281557165
31115,Castelgaillard,31230,31,43.34989125280905,0.9018721643758415
31116,Castelginest,31780,31,43.698036864075796,1.4348601874086722
31117,Castelmaurou,31180,31,43.686305285092345,1.5289114034209774
31118,Castelnau D Estretefonds,31620,31,43.79562359907101,1.351582326005902
31119,Castelnau Picampeau,31430,31,43.30799197247424,1.0137697895220106
31121,Castera Vignoles,31350,31,43.278202903166616,0.78277608215161
31122,Casties Labrande,31430,31,43.326880471957395,0.9930324407551354
31123,Castillon De Larboust,31110,31,42.75344183390669,0.5618472840701125
31124,Castillon De St Martory,31360,31,43.13966256976001,0.8574994814054799
31125,Cathervielle,31110,31,42.823011513640715,0.5077577423926475
31126,Caubiac,31480,31,43.715491339930864,1.0755876997423046
31127,Caubous,31110,31,42.84987611024955,0.5198672844043645
31128,Caujac,31190,31,43.29697964455144,1.455368086119282
31593,Cazac,31230,31,43.34671609474459,0.956226577053715
31130,Cazaril Tamboures,31580,31,43.178294119453675,0.5418091336168225
31129,Cazarilh Laspenes,31110,31,42.8032976360403,0.5810117229945926
31131,Cazaunous,31160,31,42.98543514024651,0.7220130855972825
31132,Cazaux Layrisse,31440,31,42.86997323417431,0.5949912322204636
31133,Cazeaux De Larboust,31110,31,42.75671245263082,0.537745702091889
31134,Cazeneuve Montaut,31420,31,43.18457379635033,0.860547332431636
31135,Cazeres,31220,31,43.21553307665458,1.1005478649006255
31136,Cepet,31620,31,43.748727410162815,1.4367904352910403
31137,Cessales,31290,31,43.45710638426445,1.7443771381631386
31138,Charlas,31350,31,43.23662893097725,0.6951278255852136
31139,Chaum,31440,31,42.93942571286175,0.67239789045533
31140,Chein Dessus,31160,31,43.00338935498716,0.8780650878368126
31141,Ciadoux,31350,31,43.255329707557586,0.7354351475742196
31142,Cier De Luchon,31110,31,42.85585856711819,0.5869698847649325
31143,Cier De Riviere,31510,31,43.06052308370498,0.6294823855120355
31144,Cierp Gaud,31440,31,42.900390198989314,0.632665315349031
31145,Cintegabelle,31550,31,43.30000748057065,1.537539969587299
31146,Cires,31110,31,42.85268073510596,0.5063240950284595
31147,Clarac,31210,31,43.11125673533936,0.6150374464399445
31148,Clermont Le Fort,31810,31,43.45836641753506,1.445253769960469
31149,Colomiers,31770,31,43.61163727304678,1.3245062936126777
31150,Cornebarrieu,31700,31,43.64902630836051,1.3196834014343874
31151,Corronsac,31450,31,43.47067630382827,1.4907435058957894
31152,Coueilles,31230,31,43.34612824114923,0.877382830574997
31153,Couladere,31220,31,43.19618937008491,1.093538123611715
31155,Couret,31160,31,43.04832299099693,0.8188437587678545
31156,Cox,31480,31,43.76063518419013,1.0418739427440666
31157,Cugnaux,31270,31,43.5446117804197,1.3431499284609814
31158,Cuguron,31210,31,43.10634855712483,0.522245953013556
31160,Daux,31700,31,43.6849196694688,1.2684861661808255
31161,Deyme,31450,31,43.484130561134066,1.5311184929492456
31162,Donneville,31450,31,43.47275325488464,1.550615285960745
31163,Dremil Lafage,31280,31,43.59197873491783,1.599611503502612
31164,Drudas,31480,31,43.76381500300677,1.100641174970028
31165,Eaunes,31600,31,43.432406449609694,1.354290689103373
31166,Empeaux,31470,31,43.535986073947925,1.0739887057217423
31167,Encausse Les Thermes,31160,31,43.05106514888765,0.7463995871476781
31168,Eoux,31420,31,43.27731922304484,0.8834592282394045
31169,Escalquens,31750,31,43.52010524471899,1.5528245387102886
31170,Escanecrabe,31350,31,43.27344687890445,0.7577305424063174
31591,Escoulis,31260,31,43.11059402193869,1.030146914669732
31171,Espanes,31450,31,43.45134599713941,1.488548515959557
31172,Esparron,31420,31,43.26315865355849,0.809994661837597
31173,Esperce,31190,31,43.298377771047114,1.3973615575048626
31174,Estadens,31160,31,43.03338902098604,0.8398088026997435
31175,Estancarbon,31800,31,43.109399474723865,0.7833457086589855
31176,Estenos,31440,31,42.943070195520136,0.632320207000192
31177,Eup,31440,31,42.92587020792956,0.6839643666559054
31178,Fabas,31230,31,43.312816559944636,0.8919469585365716
31180,Falga,31540,31,43.479558491288,1.842469233494173
31182,Fenouillet,31150,31,43.68643954253221,1.3897467400920234
31183,Figarol,31260,31,43.08573982795494,0.9073479889518754
31184,Flourens,31130,31,43.59753832758258,1.551406502017311
31185,Folcarde,31290,31,43.406110590631314,1.795430705002306
31186,Fonbeauzard,31140,31,43.67922653978637,1.4368071007409533
31187,Fonsorbes,31470,31,43.53322365410912,1.2429419635363024
31188,Fontenilles,31470,31,43.55244362885264,1.2048112537181819
31189,Forgues,31370,31,43.43224311187844,1.0428979288285727
31190,Fos,31440,31,42.86062961379285,0.7545235448056705
31191,Fougaron,31160,31,42.98765382706965,0.9381749127394075
31192,Fourquevaux,31450,31,43.50042098008099,1.6231219524512794
31194,Francarville,31460,31,43.5872168136532,1.7478949760206564
31195,Francazal,31260,31,43.007407531390555,1.001799967194207
31196,Francon,31420,31,43.260472130149886,0.9884439347853851
31197,Franquevielle,31210,31,43.13334687191592,0.5304475010037225
31199,Fronsac,31440,31,42.9548393645493,0.668773130200508
31200,Frontignan De Comminges,31510,31,42.96474902149404,0.6699766293165426
31201,Frontignan Saves,31230,31,43.39901986961553,0.9129252565560235
31202,Fronton,31620,31,43.85285038912492,1.3714403352687392
31203,Frouzins,31270,31,43.52184160968879,1.312524334121802
31204,Fustignac,31430,31,43.30282579119275,0.9844146491807
31205,Gagnac Sur Garonne,31150,31,43.70771030506722,1.3636249490998575
31206,Gaillac Toulza,31550,31,43.25734819271017,1.4530215521256844
31207,Galie,31510,31,42.99181707319633,0.633747045285415
31208,Ganties,31160,31,43.06112396835459,0.837854587300048
31209,Garac,31480,31,43.686866521112876,1.096995979549291
31210,Gardouch,31290,31,43.383392859352675,1.678115429147824
31211,Gargas,31620,31,43.758900328319484,1.4594788084907555
31212,Garidech,31380,31,43.712287209303895,1.5489706302804325
31213,Garin,31110,31,42.80945091004735,0.49059530572654
31215,Gaure,31590,31,43.61830433586378,1.639696511971978
31216,Gemil,31380,31,43.738848501377504,1.5966724048545515
31217,Genos,31510,31,43.000388021622655,0.668067233916581
31218,Gensac De Boulogne,31350,31,43.259327695120504,0.6036943380305495
31219,Gensac Sur Garonne,31310,31,43.21609491512167,1.1421515206005206
31220,Gibel,31560,31,43.3017315323919,1.6728367675878641
31221,Gouaux De Larboust,31110,31,42.78037540070808,0.4783067653988645
31222,Gouaux De Luchon,31110,31,42.85007799680536,0.6440397247359005
31223,Goudex,31230,31,43.37995306917364,0.9558777193989165
31224,Gourdan Polignan,31210,31,43.0708220783144,0.574500161867336
31225,Goutevernisse,31310,31,43.21376887809088,1.1737541756743646
31226,Gouzens,31310,31,43.18017357657271,1.184305214052171
31227,Goyrans,31120,31,43.48167390012097,1.425233266264981
31228,Gragnague,31380,31,43.685177973835565,1.582768171260503
31229,Gratens,31430,31,43.32451012901789,1.12079941281515
31230,Gratentour,31150,31,43.72059387650984,1.4332667680852436
31231,Grazac,31190,31,43.311748945469574,1.4491165224737945
31232,Grenade,31330,31,43.77024367327998,1.279060283398491
31233,Grepiac,31190,31,43.40527496239058,1.4539392036850214
31235,Guran,31440,31,42.88404640817198,0.60538709992397
31236,Herran,31160,31,42.9751668264188,0.889200851539935
31237,His,31260,31,43.063730227571966,0.9678806314843655
31238,Huos,31210,31,43.0673003339067,0.6000154476307931
31240,Issus,31450,31,43.42317346420548,1.5001391312509085
31241,Izaut De L Hotel,31160,31,43.012382124044464,0.7480101570745314
31242,Jurvielle,31110,31,42.830421672295415,0.47627239572694446
31243,Juzes,31540,31,43.44613258435453,1.7935594520163765
31245,Juzet D Izaut,31160,31,42.97081039858173,0.7574876859816435
31244,Juzet De Luchon,31110,31,42.8035502583553,0.6310481453879545
31239,L Isle En Dodon,31230,31,43.379239675228064,0.831036486575376
31561,L Union,31240,31,43.65145578712411,1.483032505034381
31311,La Magdelaine Sur Tarn,31340,31,43.81460254129862,1.5366784308153218
31527,La Salvetat Lauragais,31460,31,43.5466167104163,1.801307894849073
31526,La Salvetat St Gilles,31880,31,43.57681861485533,1.2654957609546515
31246,Labarthe Inard,31800,31,43.10790913086471,0.8336532254731455
31247,Labarthe Riviere,31800,31,43.08365016546107,0.6785749559910026
31248,Labarthe Sur Leze,31860,31,43.45888495655118,1.3995100294618257
31249,Labastide Beauvoir,31450,31,43.48220299607693,1.663522049829276
31250,Labastide Clermont,31370,31,43.349884660286136,1.107138088023928
31251,Labastide Paumes,31230,31,43.332080788703415,0.940459210637837
31252,Labastide St Sernin,31620,31,43.736881068960265,1.4666937919973155
31253,Labastidette,31600,31,43.45540916869301,1.2410997860139799
31254,Labege,31670,31,43.539634526349225,1.5207362868549108
31255,Labroquere,31510,31,43.04332771964688,0.5873629972614884
31256,Labruyere Dorsa,31190,31,43.40561694151896,1.4712343970324555
31258,Lacaugne,31390,31,43.28000258275111,1.280782029956871
31259,Lacroix Falgarde,31120,31,43.50215819260535,1.425551592598055
31260,Laffite Toupiere,31360,31,43.16506141260379,0.9070031456156851
31261,Lafitte Vigordane,31390,31,43.302697610531325,1.159740570724419
31262,Lagarde,31290,31,43.34636321189402,1.697297807380326
31263,Lagardelle Sur Leze,31870,31,43.416209845067094,1.392926054777123
31264,Lagrace Dieu,31190,31,43.336134860557024,1.4077440862158626
31265,Lagraulet St Nicolas,31480,31,43.79014594693606,1.075590525899588
31266,Lahage,31370,31,43.44141793650373,1.06991780149521
31267,Lahitere,31310,31,43.14121829905919,1.1878109059585715
31268,Lalouret Laffiteau,31800,31,43.18638561112479,0.6986964540106185
31269,Lamasquere,31600,31,43.48574856760172,1.249984010840621
31270,Landorthe,31800,31,43.1288352692254,0.7806256172337085
31271,Lanta,31570,31,43.55734566660563,1.6687031772330525
31272,Lapeyrere,31310,31,43.20537069053823,1.310515283995331
31273,Lapeyrouse Fossat,31180,31,43.70327902429119,1.5102700710383925
31274,Larcan,31800,31,43.17100085128153,0.719736997740647
31275,Lareole,31480,31,43.74095816768788,1.0206109940033026
31592,Larra,31330,31,43.735465921812676,1.2223334694116956
31276,Larroque,31580,31,43.19655596650685,0.6115163893599604
31277,Lasserre Pradere,31530,31,43.636964222610864,1.1760157377665945
31278,Latoue,31800,31,43.1727631343329,0.7814638564860821
31279,Latour,31310,31,43.20279974079591,1.282213036535939
31280,Latrape,31310,31,43.24836344247116,1.2923980108518784
31281,Launac,31330,31,43.752646838999496,1.1657448083108561
31282,Launaguet,31140,31,43.66680685240432,1.4579203547176451
31283,Lautignac,31370,31,43.37894556435819,1.0667723036251524
31284,Lauzerville,31650,31,43.557826704411326,1.5657043069578984
31285,Lavalette,31590,31,43.640585387139424,1.5953170625258069
31286,Lavelanet De Comminges,31220,31,43.25449595579443,1.1148995693873684
31287,Lavernose Lacasse,31410,31,43.390984694235996,1.24112634368471
31288,Layrac Sur Tarn,31340,31,43.83273304405914,1.5654973573326074
31077,Le Born,31340,31,43.895156098739236,1.5393565942229777
31093,Le Burgaud,31330,31,43.791851031311936,1.1484092183593129
31097,Le Cabanial,31460,31,43.523747383504436,1.8705973837912795
31120,Le Castera,31530,31,43.67166752007608,1.1503307045296065
31159,Le Cuing,31210,31,43.147913395292306,0.6204467142296914
31179,Le Faget,31460,31,43.564693256771044,1.8256097336746322
31181,Le Fauga,31410,31,43.39961319150008,1.3003130982185955
31193,Le Fousseret,31430,31,43.28673441634962,1.067367354849154
31198,Le Frechet,31360,31,43.190272631692096,0.930281923222269
31234,Le Gres,31480,31,43.718963606632556,1.098135193383095
31419,Le Pin Murelet,31370,31,43.39738248066764,1.0221367154843255
31425,Le Plan,31220,31,43.16306500989722,1.1245729597450356
31289,Lecussan,31580,31,43.15123496856961,0.48899393174464645
31290,Lege,31440,31,42.87773027366129,0.596349561345235
31291,Leguevin,31490,31,43.592772708224196,1.2353284237401896
31556,Les Tourreilles,31210,31,43.11268199724934,0.5497877012768625
31292,Lescuns,31220,31,43.24477846275019,1.0059663609604281
31293,Lespinasse,31150,31,43.71739757981176,1.3820802366400124
31294,Lespiteau,31160,31,43.06499079939667,0.7602916405208765
31295,Lespugue,31350,31,43.23106244624477,0.6652094680540975
31296,Lestelle De St Martory,31360,31,43.11774984229882,0.9042315654687261
31297,Levignac,31530,31,43.66457732091107,1.20355843010298
31299,Lherm,31600,31,43.42725934948743,1.228832883013719
31300,Lieoux,31800,31,43.14918021004833,0.773386465266654
31301,Lilhac,31230,31,43.285368344939734,0.810942135042687
31302,Lodes,31800,31,43.16636696822489,0.660819741219233
31303,Longages,31410,31,43.357143176780724,1.2114443945605524
31304,Loubens Lauragais,31460,31,43.57614685802288,1.7839811126904515
31305,Loudet,31580,31,43.13974156051907,0.575524545736836
31306,Lourde,31510,31,42.984887788885885,0.65679053844548
31308,Luscan,31510,31,43.0132523406197,0.6272282324695839
31309,Lussan Adeilhac,31430,31,43.294385672686914,0.9529986150166775
31310,Lux,31290,31,43.429938350369994,1.7853561663671305
31312,Mailholas,31310,31,43.24847921561998,1.2503786441353595
31313,Malvezie,31510,31,43.006523950430896,0.6988631659397879
31314,Mancioux,31360,31,43.16708254560745,0.9384959795968175
31315,Mane,31260,31,43.080419287665435,0.9427970789588089
31316,Marignac,31440,31,42.892992885249456,0.6649284691489501
31317,Marignac Lasclares,31430,31,43.304154510388706,1.109521963047941
31318,Marignac Laspeyres,31220,31,43.212088443508065,0.96270256362514
31319,Marliac,31550,31,43.22287615922846,1.475600874975047
31320,Marquefave,31390,31,43.31101391785177,1.2600727380213415
31321,Marsoulas,31260,31,43.107192340749144,0.9929057229097484
31322,Martisserre,31230,31,43.396141313027485,0.88473793780607
31323,Martres De Riviere,31210,31,43.08342940163479,0.6421580967554854
31324,Martres Tolosane,31220,31,43.205197784039164,0.993963781400306
31325,Mascarville,31460,31,43.55745593447843,1.753087752540647
31326,Massabrac,31310,31,43.22379636522989,1.3645389420341139
31327,Mauran,31220,31,43.1857311349187,1.0193141417752145
31328,Mauremont,31290,31,43.4556737749021,1.6811441006186372
31329,Maurens,31540,31,43.466844396181706,1.796848706786398
31330,Mauressac,31190,31,43.3221830944423,1.434100003611213
31331,Maureville,31460,31,43.53168589461954,1.714095350122591
31332,Mauvaisin,31190,31,43.35874151889435,1.5338627886485936
31333,Mauvezin,31230,31,43.38165049378935,0.921273873174919
31334,Mauzac,31410,31,43.377224717052655,1.3028080778370654
31335,Mayregne,31110,31,42.84904890982662,0.538897857468407
31336,Mazeres Sur Salat,31260,31,43.134087537036976,0.9604812340327625
31337,Melles,31440,31,42.86426786866849,0.8035713825974595
31338,Menville,31530,31,43.67894322755784,1.1887321758514164
31339,Merenvielle,31530,31,43.62105347842279,1.170949916294246
31340,Mervilla,31320,31,43.50669422709058,1.4729680273246646
31341,Merville,31330,31,43.72270209152347,1.291588267210406
31342,Milhas,31160,31,42.97602921775152,0.8254410623724371
31343,Mirambeau,31230,31,43.40492007440514,0.864976967511069
31344,Miramont De Comminges,31800,31,43.08857376752256,0.7586404766588465
31345,Miremont,31190,31,43.373284412496545,1.4176680875967786
31346,Mirepoix Sur Tarn,31340,31,43.82688408202678,1.5725652395793261
31347,Molas,31230,31,43.40087448910643,0.7785240126327055
31348,Moncaup,31160,31,42.96873876391603,0.7039735482142304
31349,Mondavezan,31220,31,43.239361906260896,1.0410127620605625
31350,Mondilhan,31350,31,43.29018655719883,0.7090726177034835
31351,Mondonville,31700,31,43.66906233982179,1.273487159098829
31352,Mondouzil,31850,31,43.630391633190904,1.560152371216683
31353,Mones,31370,31,43.4180025172038,1.0332530699471405
31354,Monestrol,31560,31,43.335078608961155,1.6599724741704054
31355,Mons,31280,31,43.60915106845892,1.5696332498502614
31369,Mont De Galie,31510,31,42.99299608579257,0.6457683419360615
31356,Montaigut Sur Save,31530,31,43.685544627521494,1.2328932436763136
31357,Montastruc De Salies,31160,31,43.041246574553114,0.8991318521908545
31358,Montastruc La Conseillere,31380,31,43.720944000803115,1.5898897906020855
31359,Montastruc Saves,31370,31,43.36135199150948,1.0185367385618265
31360,Montauban De Luchon,31110,31,42.79097688101618,0.62598681608415
31361,Montaut,31410,31,43.3418822338961,1.314655828782147
31362,Montberaud,31220,31,43.161082792906974,1.1535297190891929
31363,Montbernard,31230,31,43.30314980767281,0.768319787503649
31364,Montberon,31140,31,43.71885216404745,1.4900791330798555
31365,Montbrun Bocage,31310,31,43.11788658238719,1.2566169525621431
31366,Montbrun Lauragais,31450,31,43.45553142526479,1.521937540557536
31367,Montclar De Comminges,31220,31,43.16901924251442,1.0329898927531735
31368,Montclar Lauragais,31290,31,43.362275594446224,1.71214549427027
31370,Montegut Bourjac,31430,31,43.28304343811126,0.9862545093254644
31371,Montegut Lauragais,31540,31,43.479223891240736,1.9340948655146368
31372,Montespan,31260,31,43.08417621011818,0.8583581977010765
31373,Montesquieu Guittaut,31230,31,43.33660264571685,0.7649341649750956
31374,Montesquieu Lauragais,31450,31,43.40674657085914,1.626740356346754
31375,Montesquieu Volvestre,31310,31,43.17784674446972,1.2184116676102659
31376,Montgaillard De Salies,31260,31,43.05980922861438,0.9328205036711614
31377,Montgaillard Lauragais,31290,31,43.429252097725595,1.7036518438724046
31378,Montgaillard Sur Save,31350,31,43.2544827702702,0.7144654549137435
31379,Montgazin,31410,31,43.303773800427365,1.30605438179454
31380,Montgeard,31560,31,43.34577548139448,1.642674029446131
31381,Montgiscard,31450,31,43.450683250505485,1.568749532475672
31382,Montgras,31370,31,43.45066398812005,1.0720677489359924
31383,Montjoire,31380,31,43.77860454766203,1.5281559078034466
31384,Montlaur,31450,31,43.483649812358884,1.579914561726717
31385,Montmaurin,31350,31,43.225445603863434,0.638019155335065
31386,Montoulieu St Bernard,31420,31,43.23022736979333,0.9101624924613365
31387,Montoussin,31430,31,43.279262072852504,1.0100608389193995
31388,Montpitol,31380,31,43.70741144081234,1.64485394043766
31389,Montrabe,31850,31,43.643578633392735,1.5333333832373475
31390,Montrejeau,31210,31,43.08759639612834,0.5588468994759139
31391,Montsaunes,31260,31,43.108398589736815,0.9328217433479704
31392,Mourvilles Basses,31460,31,43.48814131147637,1.6983393650936085
31393,Mourvilles Hautes,31540,31,43.42460952827491,1.820638471493627
31394,Moustajon,31110,31,42.81393264684798,0.591051913003056
31395,Muret,31600,31,43.440704381998145,1.2987225223889647
31396,Nailloux,31560,31,43.36733167739139,1.6114588681703155
31397,Nenigan,31350,31,43.353153029196,0.7095103940241175
31398,Nizan Gesse,31350,31,43.22980348733509,0.597892433827294
31399,Noe,31410,31,43.36442654012985,1.2704495016513284
31400,Nogaret,31540,31,43.49337210921461,1.9346851368163511
31401,Noueilles,31450,31,43.41346916489001,1.5279054068053974
31402,Odars,31450,31,43.52336272603425,1.5918544680851516
31403,Ondes,31330,31,43.78574529569406,1.304603003054772
31404,Oo,31110,31,42.74754325803643,0.4890479306357195
31405,Ore,31510,31,42.97365832272339,0.6462540037924235
31406,Palaminy,31220,31,43.19477163037013,1.059047818323068
31407,Paulhac,31380,31,43.76022458803467,1.555601889527141
31408,Payssous,31510,31,43.03430481321763,0.716257115934372
31409,Pechabou,31320,31,43.50119937663621,1.512376323521055
31410,Pechbonnieu,31140,31,43.711135068865005,1.4561085912575424
31411,Pechbusque,31320,31,43.52686682837039,1.454394384041831
31412,Peguilhan,31350,31,43.32558964210261,0.7030057499043495
31413,Pelleport,31480,31,43.74196940395212,1.114137522877376
31414,Peyrissas,31420,31,43.28982769267523,0.9106856969344586
31415,Peyrouzet,31420,31,43.209028779199976,0.836195162097725
31416,Peyssies,31390,31,43.32640658531882,1.1805964267419125
31417,Pibrac,31820,31,43.624478374177315,1.2583697253133543
31418,Pin Balma,31130,31,43.62220258682841,1.537217061067666
31421,Pins Justaret,31860,31,43.4824767836313,1.3913894593472635
31420,Pinsaguel,31120,31,43.50301654611036,1.391898051162662
31422,Plagne,31220,31,43.15914325345925,1.0584252209466194
31423,Plagnole,31370,31,43.41143278412504,1.069994079392375
31424,Plaisance Du Touch,31830,31,43.56258979985057,1.2832815304634564
31426,Pointis De Riviere,31210,31,43.0908565232497,0.625967014127045
31427,Pointis Inard,31800,31,43.08615863411413,0.7948975236227735
31428,Polastron,31430,31,43.31934097687946,0.950510405350384
31429,Pompertuzat,31450,31,43.49583755889677,1.519949506746653
31430,Ponlat Taillebourg,31210,31,43.10965903199062,0.594259553159166
31431,Portet D Aspet,31160,31,42.94121706414796,0.852241739758379
31432,Portet De Luchon,31110,31,42.812585550458536,0.4732272225122105
31433,Portet Sur Garonne,31120,31,43.528514299385186,1.399509467652176
31434,Poubeau,31110,31,42.82718284471777,0.490885364253025
31435,Poucharramet,31370,31,43.420030541654484,1.1656546483228485
31436,Pouy De Touges,31430,31,43.3364976879997,1.0525325198304776
31437,Pouze,31450,31,43.434072494495766,1.5352715057100261
31439,Preserville,31570,31,43.51879267784598,1.62651844769903
31440,Proupiary,31360,31,43.15746226323008,0.8671637569571335
31441,Prunet,31460,31,43.572034243463705,1.7300854145489528
31442,Puydaniel,31190,31,43.33146368533865,1.42001413928885
31443,Puymaurin,31230,31,43.371195271904725,0.7494134108460635
31444,Puyssegur,31480,31,43.75311183300198,1.0670006187825232
31445,Quint Fonsegrives,31130,31,43.580639194831434,1.537160819183722
31446,Ramonville St Agne,31520,31,43.543751437894585,1.4784508021206428
31447,Razecueille,31160,31,42.962564678614314,0.813917676510565
31448,Rebigue,31320,31,43.48958899444129,1.480070788041413
31449,Regades,31800,31,43.05352865422118,0.7193366777619725
31450,Renneville,31290,31,43.38033066185055,1.722433170947546
31451,Revel,31250,31,43.467891205553855,1.997471624575673
31452,Rieucaze,31800,31,43.0772783520026,0.7515505911104935
31453,Rieumajou,31290,31,43.41123924868387,1.80234252794886
31454,Rieumes,31370,31,43.41296862815061,1.1103723906652094
31455,Rieux Volvestre,31310,31,43.253769472536426,1.209621049893776
31456,Riolas,31230,31,43.35010361505576,0.919499220063832
31457,Roquefort Sur Garonne,31360,31,43.1602715960252,0.9838503931959804
31458,Roques,31120,31,43.50702668943945,1.3576164540763571
31459,Roqueseriere,31380,31,43.729941351384014,1.6340142379821134
31460,Roquettes,31120,31,43.49476972899011,1.3745010180846942
31461,Rouede,31160,31,43.05498496226703,0.8822583923745805
31462,Rouffiac Tolosan,31180,31,43.66376870936226,1.525260562818466
31463,Roumens,31540,31,43.46342509868376,1.938776111853484
31464,Sabonneres,31370,31,43.46662001737313,1.057046337782848
31465,Saccourvielle,31110,31,42.820853959483664,0.5671024847472295
31466,Saiguede,31470,31,43.52395878350322,1.1424137172814035
31520,Sajas,31370,31,43.376506240869254,1.0259226722400792
31521,Saleich,31260,31,43.02339637609698,0.9649198665651055
31522,Salherm,31230,31,43.30783730916626,0.8274922584063965
31523,Salies Du Salat,31260,31,43.1012717101339,0.963663228825378
31524,Salles Et Pratviel,31110,31,42.83209053754179,0.607157124468739
31525,Salles Sur Garonne,31390,31,43.277049532467714,1.171059641277876
31528,Saman,31350,31,43.239840857628664,0.7223366293628974
31529,Samouillan,31420,31,43.267317022749644,0.9480249839980435
31530,Sana,31220,31,43.22774451729299,1.0114619683028634
31531,Sarrecave,31350,31,43.215497777235434,0.59426874267173
31532,Sarremezan,31350,31,43.21099812036648,0.667325485471777
31533,Saubens,31600,31,43.47988155800816,1.359164757088036
31534,Saussens,31460,31,43.59220103529344,1.7257485780859985
31535,Sauveterre De Comminges,31510,31,43.03365823823947,0.6744445406769125
31536,Saux Et Pomarede,31800,31,43.151338549070786,0.704747491778636
31537,Savarthes,31800,31,43.123732466948034,0.8032184106798075
31538,Saveres,31370,31,43.3742830041075,1.099134277966566
31539,Sedeilhac,31580,31,43.14669712900685,0.5403939006623926
31540,Segreville,31460,31,43.49183650172321,1.7490580704577865
31541,Seilh,31840,31,43.691959970841594,1.357372596628698
31542,Seilhan,31510,31,43.05165052901434,0.5809738824954305
31543,Senarens,31430,31,43.35325004421503,0.97763779991254
31544,Sengouagnet,31160,31,42.96248508012836,0.7824415001444665
31545,Sepx,31360,31,43.156340480033684,0.840135539548084
31546,Seyre,31560,31,43.36418001970384,1.6638294382222485
31547,Seysses,31600,31,43.497077570928425,1.2822079223367293
31548,Signac,31440,31,42.908355260339796,0.6167455632161895
31549,Sode,31110,31,42.812530919501256,0.639808180317683
31550,Soueich,31160,31,43.05239093861947,0.7831720555166085
31467,St Alban,31140,31,43.69552133628504,1.413331972599682
31468,St Andre,31420,31,43.27523358424139,0.8482254518350381
31469,St Araille,31430,31,43.353636195112564,1.0067125064119695
31470,St Aventin,31110,31,42.75834082550753,0.574534259636778
31471,St Beat Lez,31440,31,42.899435688204804,0.6944533152715591
31472,St Bertrand De Comminges,31510,31,43.022917517318966,0.556230189122781
31473,St Cezert,31330,31,43.78064858395082,1.1920775010036815
31474,St Christaud,31310,31,43.19148555535607,1.132871994082628
31475,St Clar De Riviere,31600,31,43.47488429761668,1.2080563676481648
31476,St Elix Le Chateau,31430,31,43.28262998717581,1.1380437678246955
31477,St Elix Seglan,31420,31,43.19566033144143,0.849822411732464
31478,St Felix Lauragais,31540,31,43.45402363914599,1.90565452953061
31479,St Ferreol De Comminges,31350,31,43.34097812335791,0.7379828156912985
31482,St Frajou,31230,31,43.33185691387581,0.8512449369045815
31483,St Gaudens,31800,31,43.120945250024576,0.725380806372144
31484,St Genies Bellevue,31180,31,43.68091227461403,1.4819173989357228
31485,St Germier,31290,31,43.46715691677573,1.7255160354771906
31486,St Hilaire,31410,31,43.42114687756086,1.268925898724677
31487,St Ignan,31800,31,43.158248331925634,0.686039869346618
31488,St Jean,31240,31,43.66411879975418,1.5016429546023256
31489,St Jean Lherm,31380,31,43.69764520563764,1.619259608659927
31490,St Jory,31790,31,43.739786611448054,1.353948498733189
31491,St Julia,31540,31,43.49428918485084,1.8948921144689894
31492,St Julien Sur Garonne,31220,31,43.24965526680868,1.145975986085954
31493,St Lary Boujean,31350,31,43.22062554160594,0.7396507423169945
31494,St Laurent,31230,31,43.325482857164666,0.800721030555575
31495,St Leon,31560,31,43.396226286361866,1.5644562766428816
31497,St Loup Cammas,31140,31,43.696820089156375,1.4785754939743625
31498,St Loup En Comminges,31350,31,43.24261845566083,0.5729647525393304
31499,St Lys,31470,31,43.51063542934591,1.2022938330871766
31500,St Mamet,31110,31,42.771872099864154,0.6328367834127271
31501,St Marcel Paulel,31590,31,43.6563556224897,1.614854533533038
31502,St Marcet,31800,31,43.19376431088368,0.7437217196852015
31503,St Martory,31360,31,43.144895099786865,0.9383668525436015
31504,St Medard,31360,31,43.128674810278845,0.829017095523116
31505,St Michel,31220,31,43.16126941690442,1.0818571179767766
31506,St Orens De Gameville,31650,31,43.55503633530988,1.533160277116092
31508,St Paul D Oueil,31110,31,42.840767265962455,0.5516224988571581
31507,St Paul Sur Save,31530,31,43.69898824429534,1.219672042810888
31509,St Pe D Ardet,31510,31,42.98562187522403,0.6815935971337135
31510,St Pe Delbosc,31350,31,43.26811356571667,0.6963637828641565
31511,St Pierre,31590,31,43.637144868747654,1.6408014090586058
31512,St Pierre De Lages,31570,31,43.5656867863498,1.6269903576926956
31513,St Plancard,31580,31,43.16900897360264,0.568303141094195
31514,St Rome,31290,31,43.41510426612423,1.6744870972952905
31515,St Rustice,31620,31,43.80269899677826,1.3281865382477056
31516,St Sauveur,31790,31,43.748966971811704,1.394650351424948
31517,St Sulpice Sur Leze,31410,31,43.325245335534575,1.3410171987507
31518,St Thomas,31470,31,43.51524687622067,1.0835412357518979
31519,St Vincent,31290,31,43.439784065789866,1.7581927770810584
31480,Ste Foy D Aigrefeuille,31570,31,43.55137799920297,1.60369554633829
31481,Ste Foy De Peyrolieres,31470,31,43.47541728342357,1.136231143284373
31496,Ste Livrade,31530,31,43.64876244754751,1.113633251791333
31551,Tarabel,31570,31,43.51220680753928,1.6772973844581012
31552,Terrebasse,31420,31,43.24029103390075,0.975248758662014
31553,Thil,31530,31,43.70587598599264,1.150325356442072
31554,Touille,31260,31,43.085629317750985,0.9804188648956496
31555,Toulouse,31000,31,43.60070327269143,1.432842540658348
31557,Tournefeuille,31170,31,43.57466712009573,1.3337544754252408
31558,Toutens,31460,31,43.47470679728175,1.746255850899461
31559,Trebons De Luchon,31110,31,42.80208932000892,0.5686678657880251
31560,Trebons Sur La Grasse,31290,31,43.45051057213383,1.7225314825264975
31562,Urau,31260,31,43.000820674155875,0.958988023234476
31563,Vacquiers,31340,31,43.78949373390748,1.4860482381128004
31564,Valcabrere,31510,31,43.029950875871435,0.5827754200566739
31565,Valentine,31800,31,43.088610900759036,0.7008523785005065
31566,Vallegue,31290,31,43.42555638969896,1.7546766741720514
31567,Vallesvilles,31570,31,43.594788365460026,1.6487302033577982
31568,Varennes,31450,31,43.47789316730986,1.695544610708468
31569,Vaudreuille,31250,31,43.422561452174136,2.0008239699242085
31570,Vaux,31540,31,43.46202722742704,1.829761438937949
31571,Vendine,31460,31,43.590391466570594,1.7650740094716824
31572,Venerque,31810,31,43.43630797070935,1.462876877510368
31573,Verfeil,31590,31,43.657861588470766,1.6791736345664905
31574,Vernet,31810,31,43.42718539724636,1.419335552316293
31575,Vieille Toulouse,31320,31,43.529903590310035,1.4368375268574345
31576,Vieillevigne,31290,31,43.40917533086091,1.6598627004119355
31577,Vignaux,31480,31,43.68970127635738,1.0654258773308
31578,Vigoulet Auzil,31320,31,43.50803458376092,1.448176538072923
31579,Villaries,31380,31,43.75116249108951,1.4898853838286115
31580,Villate,31860,31,43.46785205996528,1.3830032994799135
31581,Villaudric,31620,31,43.83202960157429,1.4372238017026486
31582,Villefranche De Lauragais,31290,31,43.40645536596509,1.7185032668858131
31583,Villematier,31340,31,43.83123592605766,1.4934262405848235
31584,Villemur Sur Tarn,31340,31,43.858227564062304,1.494710149025719
31585,Villeneuve De Riviere,31800,31,43.12104308137605,0.668078350379608
31586,Villeneuve Lecussan,31580,31,43.1344074004286,0.4842499038151365
31587,Villeneuve Les Bouloc,31620,31,43.779518895098256,1.424729469130139
31588,Villeneuve Tolosane,31270,31,43.52726839561671,1.344731733822493
31589,Villenouvelle,31290,31,43.43676274443735,1.658303259398574
