city_code,city_name,postal_code,department_code,latitude,longitude
38003,Agnin,38150,38,45.33471819520659,4.8598164043985514
38005,Allemond,38114,38,45.17769605676709,6.018386536916681
38006,Allevard,38580,38,45.3774353747755,6.119649215280823
38008,Ambel,38970,38,44.79971580887182,5.93481151223175
38009,Anjou,38150,38,45.349289003486945,4.88197120743127
38010,Annoisin Chatelans,38460,38,45.76567404922551,5.288956147199656
38011,Anthon,38280,38,45.781214364671385,5.158305850974608
38012,Aoste,38490,38,45.60150523297381,5.610984498979651
38013,Apprieu,38140,38,45.39181493158919,5.498331060048315
38297,Arandon Passins,38510,38,45.706447189403384,5.437322282552206
38015,Artas,38440,38,45.5385462138582,5.16757490585408
38017,Assieu,38150,38,45.41015778879701,4.880037093786893
38018,Auberives En Royans,38680,38,45.06558069669754,5.311961771735915
38019,Auberives Sur Vareze,38550,38,45.42595448287706,4.816221588031697
38020,Auris,38142,38,45.04964145343176,6.084310989221224
38225,Autrans Meaudre En Vercors,38112,38,45.17125924477246,5.544376360266096
38023,Avignonet,38650,38,44.955741404074146,5.669910897581568
38027,Barraux,38530,38,45.432036962436996,5.981741640379589
38030,Beaucroissant,38140,38,45.34367825713504,5.469356259092006
38031,Beaufin,38970,38,44.78797894706713,5.961471502180016
38032,Beaufort,38270,38,45.329162232314474,5.115418782497195
38033,Beaulieu,38470,38,45.18951417780822,5.397498245410722
38034,Beaurepaire,38270,38,45.337592626205186,5.04389711476652
38035,Beauvoir De Marc,38440,38,45.51834862320065,5.080653231854265
38036,Beauvoir En Royans,38160,38,45.116776963633384,5.348078358498172
38037,Bellegarde Poussieu,38270,38,45.37545407986913,4.949969563966786
38038,Belmont,38690,38,45.47236672517697,5.360197634097355
38039,Bernin,38190,38,45.263594072839254,5.862449059128682
38040,Besse,38142,38,45.11063313163409,6.208815240801579
38041,Bessins,38160,38,45.20526012107083,5.262677101320875
38042,Bevenais,38690,38,45.39459740690646,5.392373869970122
38043,Bilieu,38850,38,45.44549821695803,5.549968166416794
38044,Biol,38690,38,45.49712237418288,5.367365913231502
38045,Biviers,38330,38,45.244423393521515,5.798466248567297
38046,Bizonnes,38690,38,45.447987737751774,5.377744906261292
38047,Blandin,38730,38,45.47909837448982,5.448716722769836
38048,Bonnefamille,38090,38,45.59903970275402,5.108730631394035
38049,Bossieu,38260,38,45.41886991052435,5.153439425799133
38051,Bouge Chambalud,38150,38,45.31878127284824,4.89769133055141
38053,Bourgoin Jallieu,38300,38,45.60253457437658,5.274721160591369
38054,Bouvesse Quirieu,38390,38,45.779356264548305,5.4193369374634255
38055,Brangues,38510,38,45.69523683747218,5.542192054054617
38056,Bressieux,38870,38,45.32165211354146,5.278467477625193
38057,Bresson,38320,38,45.13298369061374,5.749824564366947
38058,Brezins,38590,38,45.3475451250024,5.305800865546984
38059,Brie Et Angonnes,38320,38,45.12204928204373,5.779972226273873
38060,Brion,38590,38,45.29293160406541,5.341602958817784
38063,Burcin,38690,38,45.43320140491163,5.446689323663871
38064,Cessieu,38110,38,45.569430401431305,5.374600490358901
38065,Chabons,38690,38,45.447683989536614,5.428024193803559
38066,Chalon,38122,38,45.44959022231242,4.939294095391202
38067,Chamagnieu,38460,38,45.6887268622371,5.1679361830960335
38071,Champ Sur Drac,38560,38,45.07002359983963,5.724011237729407
38068,Champagnier,38800,38,45.11280002900287,5.721282110851645
38069,Champier,38260,38,45.457849512575805,5.286108479170974
38567,Chamrousse,38410,38,45.11766584135294,5.900886176858307
38072,Chanas,38150,38,45.31933767010523,4.832718946889668
38073,Chanteperier,38740,38,44.960584850774254,5.97942097236222
38074,Chantesse,38470,38,45.24477496547992,5.448872058166274
38075,Chapareillan,38530,38,45.46234553485611,5.957557320679687
38080,Charancieu,38490,38,45.51909082689548,5.578916734434719
38081,Charantonnay,38790,38,45.53746599424056,5.117071391197986
38082,Charavines,38850,38,45.423103110015504,5.516616252747645
38083,Charette,38390,38,45.80448873331031,5.359348652086677
38084,Charnecles,38140,38,45.341131633165915,5.528250634799736
38085,Charvieu Chavagneux,38230,38,45.73858808966103,5.152180735607223
38087,Chasse Sur Rhone,38670,38,45.57803055753747,4.8129098164485224
38086,Chasselay,38470,38,45.262421106597486,5.340416742092479
38089,Chassignieu,38730,38,45.50136314752183,5.513785651336709
38090,Chateau Bernard,38650,38,44.982920508751505,5.564956510042132
38091,Chateauvilain,38300,38,45.51423681443948,5.331755363139008
38456,Chatel En Trieves,38710,38,44.824438980855525,5.830755192035782
38092,Chatelus,38680,38,45.05329150477723,5.399357853892528
38093,Chatenay,38980,38,45.32446582557662,5.226787471673171
38094,Chatonnay,38440,38,45.47843601271646,5.222503895704909
38095,Chatte,38160,38,45.14186817111356,5.281460862109375
38097,Chavanoz,38230,38,45.769588799142824,5.171871444618496
38098,Chelieu,38730,38,45.50457274142158,5.477145919315528
38099,Chevrieres,38160,38,45.194900437618095,5.294719462177799
38101,Cheyssieu,38550,38,45.426553092206774,4.84229505813563
38102,Chezeneuve,38300,38,45.56166884942948,5.215148058398549
38103,Chichilianne,38930,38,44.808780957691994,5.535553787069313
38104,Chimilin,38490,38,45.57228333289159,5.5884361101557065
38105,Chirens,38850,38,45.414820457386966,5.558724596095768
38106,Cholonge,38220,38,45.010652065716556,5.801131364742149
38107,Chonas L Amballan,38121,38,45.46467217674944,4.80405398404281
38108,Choranche,38680,38,45.074434196777105,5.399021662927495
38109,Chozeau,38460,38,45.69874781696148,5.208268406352147
38110,Chuzelles,38200,38,45.57699300426128,4.879166967988349
38111,Claix,38640,38,45.118672137347346,5.658974999795286
38112,Clavans En Haut Oisans,38142,38,45.10338876988358,6.168350075634878
38113,Clelles,38930,38,44.825475452854306,5.626842832558753
38114,Clonas Sur Vareze,38550,38,45.41719136537523,4.79021043166978
38116,Cognet,38350,38,44.88153392517937,5.774082942096001
38117,Cognin Les Gorges,38470,38,45.17150743820052,5.416699146651251
38118,Colombe,38690,38,45.39340296754223,5.4488003722392175
38124,Corbelin,38630,38,45.600404708832485,5.550189487068588
38126,Corenc,38700,38,45.22643933631271,5.759903905720712
38127,Cornillon En Trieves,38710,38,44.84052889716582,5.699135464168686
38128,Corps,38970,38,44.81886086853051,5.9357795263563
38129,Correncon En Vercors,38250,38,45.011331809546725,5.5220958991083675
38133,Coublevie,38500,38,45.35727549837955,5.617995595301279
38134,Cour Et Buis,38122,38,45.436096024365646,5.026691808778487
38135,Courtenay,38510,38,45.7395779301678,5.388697373383282
38136,Crachier,38300,38,45.546214399836295,5.219367207615395
38137,Cras,38210,38,45.27333013779715,5.4400801604513624
38138,Cremieu,38460,38,45.731381964094744,5.2634817789769155
38439,Crets En Belledonne,38570,38,45.35685736014801,6.031444687765214
38139,Creys Mepieu,38510,38,45.74444449509031,5.469518502423454
38140,Crolles,38920,38,45.281559109853774,5.8853354358063115
38141,Culin,38300,38,45.521543441179624,5.249250084822264
38144,Diemoz,38790,38,45.59107370746371,5.089335339185151
38146,Dizimieu,38460,38,45.711208552052675,5.284642145678542
38147,Doissin,38730,38,45.49903694833687,5.424844723811926
38148,Dolomieu,38110,38,45.617791214054236,5.476348646559756
38149,Domarin,38300,38,45.582724282945804,5.249132769561629
38150,Domene,38420,38,45.20534378617333,5.8367458895639395
38151,Echirolles,38130,38,45.14413569577172,5.714782795091191
38152,Eclose Badinieres,38300,38,45.499753352742914,5.298696769465595
38153,Engins,38360,38,45.192812846166134,5.617484067724693
38154,Entraigues,38740,38,44.89262408239972,5.9663438150703865
38155,Entre Deux Guiers,38380,38,45.411905238660566,5.757019795035097
38157,Estrablin,38780,38,45.5094094945006,4.966231862307511
38158,Eybens,38320,38,45.152625912153,5.74868319109453
38159,Eydoche,38690,38,45.44390924910145,5.335501371582357
38160,Eyzin Pinet,38780,38,45.477657854240064,4.997658909675035
38161,Faramans,38260,38,45.38647093149021,5.154795545080674
38162,Faverges De La Tour,38110,38,45.59515150765219,5.512104605171636
38167,Flacheres,38690,38,45.4686284826087,5.31590045981259
38169,Fontaine,38600,38,45.19396061921803,5.67627325866035
38170,Fontanil Cornillon,38120,38,45.255375653666135,5.661391432112378
38172,Four,38080,38,45.572584732122124,5.195997126987745
38175,Froges,38190,38,45.268399043553686,5.926453295270428
38176,Frontonas,38290,38,45.6495869980238,5.18439178788509
38179,Gieres,38610,38,45.18278075179195,5.790181654434056
38180,Gillonnay,38260,38,45.38414943662758,5.296340857235214
38181,Goncelin,38570,38,45.33653793116426,5.988587641271087
38183,Granieu,38490,38,45.5999824547806,5.590628625911153
38184,Grenay,38540,38,45.65972392782021,5.075628084268479
38185,Grenoble,38000,38,45.1842334633299,5.715540018884406
38186,Gresse En Vercors,38650,38,44.87831845968194,5.528366351835502
38188,Herbeys,38320,38,45.143734033103996,5.7967568728549566
38189,Heyrieux,38540,38,45.627507512851174,5.0578759338444375
38190,Hieres Sur Amby,38118,38,45.80092250732871,5.291381314436571
38191,Huez,38750,38,45.097247130751505,6.081277269177715
38192,Hurtieres,38570,38,45.287742673963436,5.967848779577663
38194,Izeaux,38140,38,45.34436150648929,5.430454013646161
38195,Izeron,38160,38,45.14378563726102,5.4009144004288645
38197,Janneyrias,38280,38,45.75116444233289,5.114467960875665
38198,Jarcieu,38270,38,45.3347610124555,4.950188388854052
38199,Jardin,38200,38,45.48995300454526,4.911253475273758
38200,Jarrie,38560,38,45.1113835771563,5.749142476271934
38004,L Albenc,38470,38,45.21991053381814,5.459769235478894
38193,L Isle D Abeau,38080,38,45.61525918414608,5.223437670301769
38026,La Balme Les Grottes,38390,38,45.843479744188386,5.319632886422239
38029,La Batie Montgascon,38110,38,45.5744425469447,5.5391271162061795
38061,La Buisse,38500,38,45.331871958187946,5.624482990459899
38062,La Buissiere,38530,38,45.410117888416195,5.983160185027851
38076,La Chapelle De La Tour,38110,38,45.591270757672575,5.478830523306529
38077,La Chapelle De Surieu,38150,38,45.39408776487569,4.918619479922257
38078,La Chapelle Du Bard,38580,38,45.39929343901228,6.139056021774532
38120,La Combe De Lancey,38190,38,45.19642845260292,5.925840724376517
38130,La Cote St Andre,38260,38,45.38436059276036,5.258641391972295
38166,La Flachere,38530,38,45.399386833510704,5.961453822559918
38171,La Forteresse,38590,38,45.29402957533907,5.409159371953798
38174,La Frette,38260,38,45.38997381331298,5.366479345580873
38177,La Garde,38520,38,45.07512602479302,6.049932234544135
38264,La Morte,38350,38,45.0269342495545,5.866993078747864
38265,La Motte D Aveillans,38770,38,44.945927460762356,5.739079285008337
38266,La Motte St Martin,38770,38,44.9516651419291,5.713323748680261
38269,La Mure,38350,38,44.910261650181724,5.786073127326422
38270,La Murette,38140,38,45.3829772244011,5.542352065014933
38303,La Pierre,38570,38,45.29429367169813,5.942805019310017
38338,La Riviere,38210,38,45.22358018243429,5.5117031341646054
38469,La Salette Fallavaux,38970,38,44.84221209888161,5.987732202897234
38470,La Salle En Beaumont,38350,38,44.85808340407395,5.863928760803372
38495,La Sone,38840,38,45.11734546860473,5.278151737007269
38407,La Sure En Chartreuse,38134,38,45.336105640802074,5.6744401626614644
38503,La Terrasse,38660,38,45.323688720406295,5.931914065129837
38509,La Tour Du Pin,38110,38,45.57434454880344,5.445871237037869
38516,La Tronche,38700,38,45.211711333956295,5.744348859997593
38521,La Valette,38350,38,44.94112933258047,5.854551106779852
38537,La Verpilliere,38290,38,45.6375520339677,5.1494261225620175
38203,Laffrey,38220,38,45.02712780787302,5.779199437167703
38204,Lalley,38930,38,44.75064874528266,5.681557379305596
38205,Lans En Vercors,38250,38,45.12539158259594,5.58580022255471
38206,Laval En Belledonne,38190,38,45.23353638085868,5.9745345470216105
38207,Lavaldens,38350,38,44.989094263894415,5.898679124806588
38208,Lavars,38710,38,44.85335987898297,5.682666504153018
38050,Le Bouchage,38510,38,45.668898541562015,5.5288392528012205
38052,Le Bourg D Oisans,38520,38,45.03666233268198,6.027492627855668
38070,Le Champ Pres Froges,38190,38,45.280815387673314,5.939110957640374
38100,Le Cheylas,38570,38,45.38028494598666,6.004626842281279
38173,Le Freney D Oisans,38142,38,45.086664491807795,6.118117775240343
38182,Le Grand Lemps,38690,38,45.39712578365643,5.415497084082964
38187,Le Gua,38450,38,45.01358770982732,5.615797803903796
38163,Le Haut Breda,38580,38,45.30169893053458,6.109481583202341
38268,Le Moutaret,38580,38,45.42800754748326,6.081332986051599
38296,Le Passage,38490,38,45.526473117638375,5.515676816877157
38298,Le Peage De Roussillon,38550,38,45.37232242814336,4.782548138665076
38301,Le Percy,38930,38,44.78942241143781,5.631311593119309
38315,Le Pont De Beauvoisin,38480,38,45.5304027031144,5.662154970540302
38317,Le Pont De Claix,38800,38,45.12302806523125,5.701653213253896
38471,Le Sappey En Chartreuse,38700,38,45.2616886542234,5.78680514475208
38511,Le Touvet,38660,38,45.35115624992811,5.948146695135149
38538,Le Versoud,38420,38,45.21996532534911,5.859828084781651
38209,Lentiol,38270,38,45.297726607382586,5.102668322959552
38001,Les Abrets En Dauphine,38490,38,45.53138413256657,5.585219422915026
38002,Les Adrets,38190,38,45.25707419648048,5.987408232261622
38022,Les Avenieres Veyrins Thuellin,38630,38,45.64128018339704,5.556694089941099
38131,Les Cotes D Arey,38138,38,45.459380663895764,4.8724607117859495
38132,Les Cotes De Corps,38970,38,44.84337927031328,5.925593207927109
38253,Les Deux Alpes,38520,38,44.988471303556906,6.1348742965497784
38156,Les Eparres,38300,38,45.53714114326509,5.2908330027582675
38340,Les Roches De Condrieu,38370,38,45.45315845344945,4.765603324675974
38210,Leyrieu,38460,38,45.75559067336016,5.257192208963977
38211,Lieudieu,38440,38,45.457940114313004,5.1779182771941255
38212,Livet Et Gavet,38220,38,45.09771873525894,5.910654560679146
38213,Longechenal,38690,38,45.423753363935404,5.361791913447718
38214,Lumbin,38660,38,45.30311303464221,5.91037482485566
38215,Luzinay,38200,38,45.58760842780836,4.962650430770202
38216,Malleval En Vercors,38470,38,45.153753439468915,5.444023171361138
38217,Marcieu,38350,38,44.9205819738841,5.697085470271416
38218,Marcilloles,38260,38,45.35047023196543,5.177382248602424
38219,Marcollin,38270,38,45.31156408660577,5.089730752253697
38221,Marnans,38980,38,45.29024903458297,5.2509246228336615
38222,Massieu,38620,38,45.43802286856453,5.601729524402803
38223,Maubec,38300,38,45.5676951415196,5.2583513048244885
38224,Mayres Savel,38350,38,44.88971505215635,5.706240744367536
38226,Mens,38710,38,44.811641619818516,5.753944696028677
38228,Merlas,38620,38,45.43999336606147,5.653583755173566
38229,Meylan,38240,38,45.214679454307046,5.7864721818306
38230,Meyrie,38300,38,45.560611598254894,5.283359585291248
38231,Meyrieu Les Etangs,38440,38,45.515623606662174,5.201385477267913
38232,Meyssiez,38440,38,45.463340638555295,5.060785239745854
38235,Miribel Lanchatre,38450,38,44.97547882198094,5.606159119680312
38236,Miribel Les Echelles,38380,38,45.436308481180205,5.707611619508404
38237,Mizoen,38142,38,45.04070305283105,6.177225858254327
38238,Moidieu Detourbe,38440,38,45.51505265944371,5.018110164353074
38239,Moirans,38430,38,45.322755275476425,5.567581377607585
38240,Moissieu Sur Dolon,38270,38,45.38888328107682,4.987297994560918
38241,Monestier D Ambel,38970,38,44.76808058513386,5.918849107111041
38242,Monestier De Clermont,38650,38,44.922428240410746,5.634303658768782
38243,Monestier Du Percy,38930,38,44.78439409329377,5.649333884795547
38244,Monsteroux Milieu,38122,38,45.43441333988862,4.952031836066357
38258,Mont St Martin,38120,38,45.281627812995005,5.682742871848296
38245,Montagne,38160,38,45.1417162414961,5.203404326273461
38246,Montagnieu,38110,38,45.52681764773611,5.4548510678285105
38247,Montalieu Vercieu,38390,38,45.81434340140132,5.4035822788711165
38248,Montaud,38210,38,45.26139009998558,5.565180492628198
38249,Montbonnot St Martin,38330,38,45.22128477830084,5.81475657246274
38250,Montcarra,38890,38,45.609101577195986,5.4016924301405265
38252,Montchaboud,38220,38,45.09164235494077,5.760344497365316
38254,Monteynard,38770,38,44.97923419953031,5.703295698429801
38255,Montfalcon,38940,38,45.26036802762667,5.1716039111013625
38256,Montferrat,38620,38,45.47850575113246,5.580011285388377
38257,Montrevel,38690,38,45.47644260865498,5.409498022034291
38259,Montseveroux,38122,38,45.43267118317503,4.9727638570254005
38260,Moras,38460,38,45.685636562701106,5.2625931752609825
38261,Morestel,38510,38,45.68119966946759,5.47157070607336
38263,Morette,38210,38,45.28464897966501,5.45157296075263
38267,Mottier,38260,38,45.42247268296488,5.308560805238635
38271,Murianette,38420,38,45.18950042870513,5.825922778117166
38272,Murinais,38160,38,45.214556419914445,5.321901252582739
38273,Nantes En Ratier,38350,38,44.929415399078636,5.828528827254952
38276,Nivolas Vermelle,38300,38,45.56376165035286,5.308362696305201
38277,Notre Dame De Commiers,38450,38,45.01028359101326,5.707151306577151
38278,Notre Dame De L Osier,38470,38,45.23836495719335,5.4112396288411935
38279,Notre Dame De Mesage,38220,38,45.06720306368601,5.75100198357095
38280,Notre Dame De Vaulx,38144,38,44.99391683678007,5.73977819318082
38281,Noyarey,38360,38,45.24183679099582,5.620041558747241
38282,Optevoz,38460,38,45.751991022696785,5.340556785211418
38283,Oris En Rattier,38350,38,44.93274679630662,5.887171836169382
38284,Ornacieux Balbins,38260,38,45.39427347212878,5.213650564577616
38285,Ornon,38520,38,45.03933085180164,5.9610772097715525
38286,Oulles,38520,38,45.07808958641907,5.965955596919603
38287,Oyeu,38690,38,45.4282609980201,5.478681215637202
38288,Oytier St Oblas,38780,38,45.56125270282801,5.030330803119721
38289,Oz,38114,38,45.12816557042542,6.0751580369624945
38290,Pact,38270,38,45.35321347245859,4.986746765258973
38291,Pajay,38260,38,45.36260389319643,5.127883181228153
38294,Panossas,38460,38,45.677201750295616,5.190182331627544
38295,Parmilieu,38390,38,45.84369467053261,5.359511180445436
38299,Pellafol,38970,38,44.78316542686483,5.875087076903002
38300,Penol,38260,38,45.36913354771092,5.162496250368272
38304,Pierre Chatel,38119,38,44.95654347179254,5.771727568464321
38307,Pisieu,38270,38,45.38576509256467,5.072330352756479
38308,Plan,38590,38,45.31613446714702,5.390165657323285
38395,Plateau Des Petites Roches,38660,38,45.334310537340016,5.882678762612919
38309,Poisat,38320,38,45.15345790884752,5.770130768191539
38310,Polienas,38210,38,45.24724394291417,5.481806173788336
38311,Pommier De Beaurepaire,38260,38,45.388223554794635,5.113370310227731
38313,Ponsonnas,38350,38,44.89000907294068,5.79792431667506
38316,Pont De Cheruy,38230,38,45.74939046757855,5.172794781809731
38319,Pont En Royans,38680,38,45.062214821469695,5.345231643274169
38318,Pont Eveque,38780,38,45.53347023918796,4.927829072167064
38314,Pontcharra,38530,38,45.42254149283644,6.022820808824449
38320,Porcieu Amblagnieu,38390,38,45.83728801000878,5.398199707198792
38479,Porte Des Bonnevaux,38260,38,45.432029704140476,5.215339118310332
38321,Prebois,38710,38,44.77717283720836,5.715754531322968
38322,Presles,38680,38,45.09268146037099,5.405945162657265
38323,Pressins,38480,38,45.5270584533862,5.631750570497704
38324,Primarette,38270,38,45.405609455039084,5.031873363509215
38325,Proveysieux,38120,38,45.28207459781499,5.715364973826378
38326,Prunieres,38350,38,44.89434629978146,5.752416097169425
38328,Quaix En Chartreuse,38950,38,45.259086571945836,5.730149694628125
38329,Quet En Beaumont,38970,38,44.83524224927281,5.874990663720198
38330,Quincieu,38470,38,45.27713861692504,5.389808598242339
38331,Reaumont,38140,38,45.35977653057266,5.523977145892685
38332,Renage,38140,38,45.32948244031439,5.493871488060223
38333,Rencurel,38680,38,45.11779629766086,5.475230416163831
38334,Revel,38420,38,45.16768847101622,5.91760344909911
38335,Revel Tourdan,38270,38,45.372051844134816,5.0295364204073945
38336,Reventin Vaugris,38121,38,45.47572542399089,4.843806331931763
38337,Rives,38140,38,45.36061154873622,5.48478184264202
38339,Roche,38090,38,45.57802181653797,5.155728592985167
38341,Rochetoirin,38110,38,45.585438312588096,5.413955442613604
38342,Roissard,38650,38,44.8825571762148,5.633361165218952
38343,Romagnieu,38480,38,45.56529538859225,5.644595264961996
38344,Roussillon,38150,38,45.38183328406613,4.813324397464907
38345,Rovon,38470,38,45.18428352226085,5.463919658990173
38346,Royas,38440,38,45.50481476382991,5.101812657211548
38347,Roybon,38940,38,45.24352417014135,5.254654936150529
38348,Ruy Montceau,38300,38,45.58808762518859,5.3481641569374805
38349,Sablons,38550,38,45.320403066134105,4.784969670932439
38467,Salagnon,38890,38,45.67171943009501,5.352286468244769
38468,Salaise Sur Sanne,38150,38,45.34320273397476,4.8028393805882645
38472,Sarcenas,38700,38,45.28281342725555,5.763166848443194
38473,Sardieu,38260,38,45.36014441707873,5.2191946864641245
38474,Sassenage,38360,38,45.21409325659535,5.6540615035483555
38475,Satolas Et Bonce,38290,38,45.68212477836113,5.121770282880924
38476,Savas Mepin,38440,38,45.50290059747587,5.063817350207199
38478,Sechilienne,38220,38,45.073277714511896,5.8325834382488235
38480,Septeme,38780,38,45.55136445940822,4.988154209847567
38481,Serezin De La Tour,38300,38,45.55536391924744,5.3482644982933065
38483,Sermerieu,38510,38,45.66886767966069,5.412300777667037
38484,Serpaize,38200,38,45.558128331776885,4.921134787752564
38275,Serre Nerpol,38470,38,45.256611040397075,5.373005725660768
38485,Seyssinet Pariset,38170,38,45.17206345773525,5.670137392879171
38486,Seyssins,38180,38,45.157821330200626,5.669660026296263
38487,Seyssuel,38200,38,45.562382027794825,4.840952361231533
38488,Siccieu St Julien Et Carisieu,38460,38,45.7286102120908,5.308876920224986
38489,Sievoz,38350,38,44.90445136709286,5.850277893878252
38490,Sillans,38590,38,45.34726345635811,5.392392493201835
38492,Sinard,38650,38,44.94382599241811,5.6557789088903725
38494,Soleymieu,38460,38,45.70310384796484,5.362247273125909
38496,Sonnay,38150,38,45.35633553636637,4.916273771540229
38497,Sousville,38350,38,44.911902278995555,5.806609135142834
38351,St Agnin Sur Bion,38300,38,45.537043320108,5.236000475443769
38352,St Alban De Roche,38080,38,45.58887427929692,5.224312472543965
38353,St Alban Du Rhone,38370,38,45.420442916465745,4.754981767661057
38354,St Albin De Vaulserre,38480,38,45.50215621526403,5.698457389203663
38355,St Andeol,38650,38,44.956334077529604,5.523188105156141
38356,St Andre En Royans,38680,38,45.07972324547791,5.340596531090957
38357,St Andre Le Gaz,38490,38,45.54773601582082,5.53364189367333
38359,St Antoine L Abbaye,38160,38,45.1792603793743,5.212362506284774
38360,St Appolinard,38160,38,45.189553613744195,5.25903305637185
38361,St Arey,38350,38,44.88786912720441,5.744896923479584
38362,St Aupre,38960,38,45.403795759243515,5.660335766323408
38363,St Barthelemy,38270,38,45.3419563159067,5.082337338120434
38364,St Barthelemy De Sechilienne,38220,38,45.03505457964944,5.821150833976258
38365,St Baudille De La Tour,38118,38,45.79053789806093,5.346987182499958
38366,St Baudille Et Pipet,38710,38,44.78152715172136,5.771329622617767
38368,St Blaise Du Buis,38140,38,45.38205263207672,5.511867507377502
38370,St Bonnet De Chavagne,38840,38,45.11786270788278,5.228404745998406
38372,St Bueil,38620,38,45.47495582967994,5.680698456411749
38373,St Cassien,38500,38,45.359410938369365,5.549827129257292
38374,St Chef,38890,38,45.64007944167357,5.361903252693445
38375,St Christophe En Oisans,38520,38,44.930418622864295,6.23274361249889
38376,St Christophe Sur Guiers,38380,38,45.405456636875066,5.796437655412869
38377,St Clair De La Tour,38110,38,45.57168835449377,5.486278475791929
38378,St Clair Du Rhone,38370,38,45.43571956639154,4.773862383292452
38379,St Clair Sur Galaure,38940,38,45.26978917629229,5.1493091967763895
38380,St Didier De Bizonnes,38690,38,45.459871779510806,5.343700318523073
38381,St Didier De La Tour,38110,38,45.544606289586824,5.487665679912258
38382,St Egreve,38120,38,45.23152059162065,5.682769820369549
38383,St Etienne De Crossey,38960,38,45.37973850420839,5.634353159337551
38384,St Etienne De St Geoirs,38590,38,45.34679639467457,5.3503878017651445
38386,St Geoire En Valdaine,38620,38,45.46284252790974,5.633453895706605
38387,St Geoirs,38590,38,45.3128449947311,5.355531964120305
38389,St Georges D Esperanche,38790,38,45.562807689953615,5.088996798213419
38388,St Georges De Commiers,38450,38,45.03555603186388,5.721806917633349
38390,St Gervais,38470,38,45.188063052253085,5.4959048088244
38391,St Guillaume,38650,38,44.94475938149294,5.591148931546865
38392,St Hilaire De Brens,38460,38,45.67703562498965,5.291325491805585
38393,St Hilaire De La Cote,38260,38,45.387509958731314,5.333274492431368
38394,St Hilaire Du Rosier,38840,38,45.0930850419707,5.246602603740714
38396,St Honore,38350,38,44.957145039293266,5.821740631178269
38397,St Ismier,38330,38,45.25031139835086,5.827384188775842
38398,St Jean D Avelanne,38480,38,45.50791272012299,5.667866422092313
38403,St Jean D Herans,38710,38,44.856697955998314,5.762142695921783
38399,St Jean De Bournay,38440,38,45.496412853210074,5.145024506435346
38400,St Jean De Moirans,38430,38,45.33383483714814,5.584826086606537
38401,St Jean De Soudain,38110,38,45.583905783567815,5.434982514124493
38402,St Jean De Vaulx,38220,38,45.02173889829858,5.749799672080151
38404,St Jean Le Vieux,38420,38,45.20874867714059,5.876551267072738
38405,St Joseph De Riviere,38134,38,45.36523028078132,5.693718969245129
38406,St Julien De L Herms,38122,38,45.43056704580787,5.089282600286577
38408,St Just Chaleyssin,38540,38,45.58668286715691,5.007718449236261
38409,St Just De Claix,38680,38,45.082228735417985,5.275669972533349
38410,St Lattier,38840,38,45.09345807929776,5.180226615285159
38412,St Laurent Du Pont,38380,38,45.3812059556589,5.730681978516833
38413,St Laurent En Beaumont,38350,38,44.88589384290648,5.8475137716890035
38415,St Marcel Bel Accueil,38080,38,45.65016343327362,5.241884350590139
38416,St Marcellin,38160,38,45.15262818336585,5.316601615321568
38421,St Martin D Heres,38400,38,45.17822045142836,5.7646284702514805
38422,St Martin D Uriage,38410,38,45.156806166474254,5.859178056293487
38419,St Martin De Clelles,38930,38,44.84550419873783,5.605496010356694
38115,St Martin De La Cluze,38650,38,44.99090765260391,5.6617469985055475
38420,St Martin De Vaulserre,38480,38,45.49105305282756,5.683466623412656
38423,St Martin Le Vinoux,38950,38,45.218399672620286,5.71038466790691
38424,St Maurice En Trieves,38930,38,44.758542900604375,5.657257023880689
38425,St Maurice L Exil,38550,38,45.39109034638345,4.777384644532279
38426,St Maximin,38530,38,45.42502685083109,6.0493274362839555
38427,St Michel De St Geoirs,38590,38,45.30081680681683,5.35867084968103
38428,St Michel En Beaumont,38350,38,44.86899122458133,5.915055196019435
38429,St Michel Les Portes,38650,38,44.8664545209696,5.583957769425438
38430,St Mury Monteymond,38190,38,45.20913302713313,5.935315839440477
38431,St Nazaire Les Eymes,38330,38,45.26476123716423,5.848180752240476
38432,St Nicolas De Macherin,38500,38,45.405658664997546,5.615227223254445
38433,St Nizier Du Moucherotte,38250,38,45.16382336221572,5.630593429125161
38434,St Ondras,38490,38,45.51846243502036,5.545174831217668
38437,St Paul D Izeaux,38140,38,45.31298692701281,5.4333283223702225
38436,St Paul De Varces,38760,38,45.064581213390326,5.6318680560150405
38438,St Paul Les Monestier,38650,38,44.93038535259744,5.612729876369206
38446,St Pierre D Entremont,38380,38,45.38353170030821,5.852350056324578
38440,St Pierre De Bressieux,38870,38,45.30344864453923,5.296799501725896
38442,St Pierre De Chartreuse,38380,38,45.33123747968644,5.793329095652997
38443,St Pierre De Cherennes,38160,38,45.123371517324024,5.389968166288666
38444,St Pierre De Mearoz,38350,38,44.87248328573668,5.817844710109187
38445,St Pierre De Mesage,38220,38,45.049098280586236,5.766861143329553
38448,St Prim,38370,38,45.444139480373806,4.806735392451424
38449,St Quentin Fallavier,38070,38,45.63920162283401,5.11276332621013
38450,St Quentin Sur Isere,38210,38,45.275021281340074,5.554001889424671
38451,St Romain De Jalionas,38460,38,45.75266974598409,5.2226977434843445
38452,St Romain De Surieu,38150,38,45.391155545007436,4.889758244828615
38453,St Romans,38160,38,45.104870836426905,5.317761029583323
38454,St Sauveur,38160,38,45.14325176867514,5.345696014217538
38455,St Savin,38300,38,45.628246854804516,5.321564354343966
38457,St Simeon De Bressieux,38870,38,45.32098284531557,5.26599998279567
38458,St Sorlin De Morestel,38510,38,45.63189801651553,5.471569874902263
38459,St Sorlin De Vienne,38200,38,45.47555057075014,4.939082775758387
38460,St Sulpice Des Rivoires,38620,38,45.468076235073525,5.6018982829555775
38462,St Theoffrey,38119,38,44.99508850622867,5.776428965353839
38463,St Verand,38160,38,45.18163188511841,5.342553147536327
38464,St Victor De Cessieu,38110,38,45.53788047940136,5.381384230285976
38465,St Victor De Morestel,38510,38,45.704219399510315,5.495623131627986
38466,St Vincent De Mercuze,38660,38,45.374016998510186,5.956953733335451
38350,Ste Agnes,38190,38,45.209550293455116,5.950348628426102
38358,Ste Anne Sur Gervonde,38440,38,45.49978214217339,5.23538994979074
38369,Ste Blandine,38110,38,45.54503553473578,5.436038318838647
38414,Ste Luce,38970,38,44.84612820842271,5.905765115638142
38417,Ste Marie D Alloix,38660,38,45.3853515444176,5.973462576645015
38418,Ste Marie Du Mont,38660,38,45.40511442161643,5.929435727716236
38498,Succieu,38300,38,45.52848762831237,5.341634512035056
38499,Susville,38350,38,44.927976881253166,5.760748530242626
38500,Teche,38470,38,45.180606296663825,5.376250548131269
38501,Tencin,38570,38,45.31027256201369,5.961721061288603
38504,Theys,38570,38,45.29582601509466,6.0067300907299455
38505,Thodure,38260,38,45.31543304884725,5.155798642163859
38507,Tignieu Jameyzieu,38230,38,45.7320903525699,5.182957386499688
38508,Torchefelon,38690,38,45.517152632086805,5.398365082198164
38512,Tramole,38300,38,45.5153415817404,5.265594109525262
38513,Treffort,38650,38,44.90081655191962,5.659140785939963
38514,Treminis,38710,38,44.73170608871226,5.766930629367472
38515,Trept,38460,38,45.68637072165002,5.323858228381917
38517,Tullins,38210,38,45.29242735106581,5.487386508092156
38560,Val De Virieu,38730,38,45.476005592801215,5.471568980914235
38518,Valbonnais,38740,38,44.90287259758861,5.906594251970949
38519,Valencin,38540,38,45.60582933548306,5.025900101822624
38520,Valencogne,38730,38,45.489311144143926,5.534363138668873
38522,Valjouffrey,38740,38,44.87755259492893,6.094781083027078
38523,Varacieux,38470,38,45.227657882223035,5.340868444922608
38524,Varces Allieres Et Risset,38760,38,45.0884094345228,5.669939688809592
38525,Vasselin,38890,38,45.629346584267054,5.450387449318757
38526,Vatilieu,38470,38,45.25942658736925,5.410935444207825
38527,Vaujany,38114,38,45.18843323719412,6.099485587298397
38528,Vaulnaveys Le Bas,38410,38,45.10023432198995,5.812278536869266
38529,Vaulnaveys Le Haut,38410,38,45.115858669959785,5.83542797050185
38530,Vaulx Milieu,38090,38,45.61735743364093,5.186805182374853
38531,Velanne,38620,38,45.488818785055074,5.644114636869773
38532,Venerieu,38460,38,45.659300093002116,5.278465575666801
38533,Venon,38610,38,45.17416950582361,5.81118399429981
38535,Vernas,38460,38,45.77689033416036,5.264739384086306
38536,Vernioz,38150,38,45.4345121679993,4.894597486891683
38539,Vertrieu,38390,38,45.86923991271549,5.370315692889472
38540,Veurey Voroize,38113,38,45.27133141368134,5.6042059355989675
38542,Veyssilieu,38460,38,45.68046235345763,5.228309830906157
38543,Vezeronce Curtin,38510,38,45.65342628606828,5.468998466343654
38544,Vienne,38200,38,45.52207670194343,4.880333204768244
38545,Vif,38450,38,45.0429804400888,5.671193300488734
38546,Vignieu,38890,38,45.63145970069051,5.422658304965799
38292,Villages Du Lac De Paladru,38730,38,45.47433028703914,5.53394828710929
38547,Villard Bonnot,38190,38,45.24602719545585,5.883733187544367
38548,Villard De Lans,38250,38,45.05102853525081,5.539211380321268
38549,Villard Notre Dame,38520,38,45.01039359810798,6.032626379468839
38550,Villard Reculas,38114,38,45.092380259331044,6.039056129663827
38551,Villard Reymond,38520,38,45.02793023748723,6.006761422047708
38552,Villard St Christophe,38119,38,44.98285848685259,5.823294907563312
38556,Ville Sous Anjou,38150,38,45.376441305512714,4.863891407880649
38553,Villefontaine,38090,38,45.61605763762532,5.154918634279429
38554,Villemoirieu,38460,38,45.713765327329206,5.234823769242343
38555,Villeneuve De Marc,38440,38,45.46272310247866,5.12015086689403
38557,Villette D Anthon,38280,38,45.78776222687034,5.101949212544678
38558,Villette De Vienne,38200,38,45.58826041405712,4.9109030747981475
38559,Vinay,38470,38,45.21442261043788,5.407779660229868
38561,Viriville,38980,38,45.30563399057413,5.2081763095782545
38562,Vizille,38220,38,45.07280974593281,5.7812931888840104
38563,Voiron,38500,38,45.38047297183019,5.5869481021104175
38564,Voissant,38620,38,45.480674773710774,5.704460224398129
38565,Voreppe,38340,38,45.28611340498982,5.641731072577112
38566,Vourey,38210,38,45.31525493176727,5.5205062255172885
