city_code,city_name,postal_code,department_code,latitude,longitude
55001,Abainville,55130,55,48.531017201474924,5.523593104444025
55002,Abaucourt Hautecourt,55400,55,49.19976100702499,5.546850529911117
55004,Aincreville,55110,55,49.368737189565735,5.114726452079841
55005,Amanty,55130,55,48.5159615030268,5.601630727710355
55007,Ambly Sur Meuse,55300,55,49.02195377489557,5.452093778827569
55008,Amel Sur L Etang,55230,55,49.25692907686778,5.644971084943682
55009,Ancemont,55320,55,49.06315991289083,5.381115777837438
55010,Ancerville,55170,55,48.63913174887438,5.02660529228022
55011,Andernay,55800,55,48.78265285577604,4.952435733227916
55012,Apremont La Foret,55300,55,48.846697940513124,5.620673023213733
55013,Arrancy Sur Crusnes,55230,55,49.41266365830599,5.649875506543136
55014,Aubreville,55120,55,49.15980202388077,5.097896685180385
55015,Aulnois En Perthois,55170,55,48.63622431179592,5.122660453691342
55017,Autrecourt Sur Aire,55120,55,49.027243804143154,5.143850646475345
55018,Autreville St Lambert,55700,55,49.5644516441572,5.135139854695176
55021,Avillers Ste Croix,55210,55,49.03371283201268,5.701951272318338
55022,Avioth,55600,55,49.5673456621156,5.389659111701193
55023,Avocourt,55270,55,49.20458863176401,5.140722280548863
55024,Azannes Et Soumazannes,55150,55,49.28803087286168,5.468416663314885
55025,Baalon,55700,55,49.48503782211108,5.262337396941911
55026,Badonvilliers Gerauvilliers,55130,55,48.54338841079952,5.578116365642147
55027,Bannoncourt,55300,55,48.95506956590945,5.480524210431164
55028,Bantheville,55110,55,49.35220723857576,5.071761780532262
55029,Bar Le Duc,55000,55,48.76283061087593,5.173243516355971
55031,Baudonvilliers,55170,55,48.68944574377338,5.005586382480544
55032,Baudremont,55260,55,48.83633175733616,5.394626608821978
55033,Baulny,55270,55,49.2660894136343,5.025214303481558
55034,Bazeilles Sur Othain,55600,55,49.500656680925935,5.427298050839457
55035,Bazincourt Sur Saulx,55170,55,48.68737754030392,5.141081220106687
55036,Beauclair,55700,55,49.45287434530391,5.117532116139468
55037,Beaufort En Argonne,55700,55,49.48004838236403,5.110582816200618
55038,Beaulieu En Argonne,55250,55,49.04498266099366,5.0339138984588105
55039,Beaumont En Verdunois,55100,55,49.26505762065203,5.40340886643633
55040,Beausite,55250,55,48.9657576789924,5.2183436982406635
55041,Behonne,55000,55,48.797759727947025,5.170206976631817
55042,Belleray,55100,55,49.1299618475684,5.369993757917694
55043,Belleville Sur Meuse,55430,55,49.17975016412018,5.3976092913132065
55044,Belrain,55260,55,48.86166361270459,5.306482941703184
55045,Belrupt En Verdunois,55100,55,49.14969897403353,5.447989396533046
55046,Beney En Woevre,55210,55,48.9632738349583,5.802755923879463
55047,Bethelainville,55100,55,49.169383095210364,5.22445679545466
55048,Bethincourt,55270,55,49.247743033425294,5.2200826161014335
55049,Beurey Sur Saulx,55000,55,48.75929170940036,5.0289748097728655
55050,Bezonvaux,55100,55,49.22944094772109,5.475196745074157
55051,Biencourt Sur Orge,55290,55,48.56973803742464,5.34502311433773
55053,Billy Sous Mangiennes,55230,55,49.32214667202374,5.5651141706845095
55054,Bislee,55300,55,48.87220758074139,5.50898860529327
55055,Blanzee,55400,55,49.1609285773067,5.533547018602583
55057,Boinville En Woevre,55400,55,49.188078996156165,5.679041504282001
55058,Boncourt Sur Meuse,55200,55,48.81157339839138,5.583804007699133
55059,Bonnet,55130,55,48.52429028635242,5.421900769949092
55060,Bonzee,55160,55,49.08936983606721,5.569229083157576
55062,Bouconville Sur Madt,55300,55,48.84400219860666,5.703853799027418
55063,Bouligny,55240,55,49.292966316797305,5.742230963399594
55064,Bouquemont,55300,55,48.98253673087396,5.42739506347547
55065,Boureuilles,55270,55,49.19879103288149,5.02200321930988
55066,Bovee Sur Barboure,55190,55,48.636565225299876,5.512347557843663
55067,Boviolles,55500,55,48.64329604127256,5.415490361070347
55068,Brabant En Argonne,55120,55,49.11984888373922,5.150546077658769
55069,Brabant Le Roi,55800,55,48.85759067560123,4.978358559451738
55070,Brabant Sur Meuse,55100,55,49.280187352604415,5.322319664071919
55071,Brandeville,55150,55,49.3914900586379,5.308675628384993
55072,Braquis,55400,55,49.15631697098486,5.625771915883757
55073,Bras Sur Meuse,55100,55,49.20744204248146,5.390589622852487
55075,Brauvilliers,55170,55,48.57677226348259,5.15500768336396
55076,Breheville,55150,55,49.38277574396281,5.33055425256512
55077,Breux,55600,55,49.5929799598658,5.396201825016753
55078,Brieulles Sur Meuse,55110,55,49.32830964975502,5.172254094237092
55079,Brillon En Barrois,55000,55,48.71708897125542,5.107893792248463
55080,Brixey Aux Chanoines,55140,55,48.47541001095461,5.716123995374414
55081,Brizeaux,55250,55,49.00538249729559,5.0555460420720255
55082,Brocourt En Argonne,55120,55,49.11170028925842,5.17145790560703
55083,Brouennes,55700,55,49.522284407704134,5.250783113371252
55084,Broussey En Blois,55190,55,48.63423902692952,5.553397821378761
55085,Broussey Raulecourt,55200,55,48.81421657173755,5.715133843345267
55087,Bure,55290,55,48.50617922734333,5.341973775158303
55088,Burey En Vaux,55140,55,48.55584786464628,5.646180796713756
55089,Burey La Cote,55140,55,48.50108640439562,5.683776662605357
55093,Buxieres Sous Les Cotes,55300,55,48.90552646397997,5.681525823965821
55094,Buzy Darmont,55400,55,49.171058020340155,5.715267783625599
55095,Cesse,55700,55,49.50862169357328,5.138236026665164
55096,Chaillon,55210,55,48.94961539972106,5.651765453473829
55097,Chalaines,55140,55,48.59631843935272,5.697436974630906
55099,Champneuville,55100,55,49.2377375621859,5.3319849023317545
55100,Champougny,55140,55,48.54366697870492,5.701406724288444
55358,Chanteraine,55500,55,48.67540740222516,5.389003119293768
55101,Chardogne,55000,55,48.826340291622955,5.127727581817437
55102,Charny Sur Meuse,55100,55,49.20240564751098,5.342241148379474
55103,Charpentry,55270,55,49.258202601034895,5.041327473646849
55104,Chassey Beaupre,55130,55,48.44462917908296,5.437468451379909
55105,Chatillon Sous Les Cotes,55400,55,49.13930426233982,5.512944403616675
55106,Chattancourt,55100,55,49.21543933586236,5.265383403619799
55107,Chaumont Devant Damvillers,55150,55,49.310782070967804,5.434015506418259
55108,Chaumont Sur Aire,55260,55,48.92318213521218,5.270718264520603
55109,Chauvency Le Chateau,55600,55,49.52817478641313,5.305983430534923
55110,Chauvency St Hubert,55600,55,49.5385743633115,5.2984550199229234
55111,Chauvoncourt,55300,55,48.89397759306532,5.493556946479592
55113,Cheppy,55270,55,49.226927171014125,5.078210793819787
55114,Chonville Malaumont,55200,55,48.75919251672621,5.4866561995532415
55115,Cierges Sous Montfaucon,55270,55,49.30087122616082,5.09031860029062
55117,Clermont En Argonne,55120,55,49.12024902111581,5.092547793643025
55118,Clery Le Grand,55110,55,49.36200064234123,5.142058809418232
55119,Clery Le Petit,55110,55,49.364076706848664,5.166995034556611
55120,Combles En Barrois,55000,55,48.74269280641528,5.112386593726941
55121,Combres Sous Les Cotes,55160,55,49.0633733565429,5.620143694871348
55122,Commercy,55200,55,48.748995810919084,5.56583614066216
55124,Consenvoye,55110,55,49.296076581288304,5.313627180900463
55125,Contrisson,55800,55,48.80289284148178,4.957163170425338
55127,Courcelles En Barrois,55260,55,48.82519166221627,5.4277154354624635
55128,Courcelles Sur Aire,55260,55,48.94071808290472,5.233093005079681
55129,Courouvre,55260,55,48.94540626289046,5.356933746805584
55132,Cousances Les Forges,55170,55,48.618275820340294,5.088548653106854
55518,Cousances Les Triconville,55500,55,48.77030098235146,5.403202781573939
55133,Couvertpuis,55290,55,48.58015112836756,5.305941393081833
55134,Couvonges,55800,55,48.77719025542282,5.037719762751245
55137,Cuisy,55270,55,49.26836420980278,5.1884686175044505
55138,Culey,55000,55,48.76764169003651,5.270625163454134
55139,Cumieres Le Mort Homme,55100,55,49.23404692974938,5.264758162525155
55140,Cunel,55110,55,49.331311504979666,5.118449510354582
55141,Dagonville,55500,55,48.790364141165625,5.383226149153817
55142,Dainville Bertheleville,55130,55,48.45076747574319,5.513510241462677
55143,Damloup,55400,55,49.19852892445499,5.495093609470887
55144,Dammarie Sur Saulx,55500,55,48.598851898760316,5.238631652705179
55145,Damvillers,55150,55,49.34312741056857,5.414844789618295
55146,Dannevoux,55110,55,49.308791960243965,5.222147730870197
55148,Delouze Rosieres,55130,55,48.568046675759774,5.535357567129915
55149,Delut,55150,55,49.410607906414015,5.420715123936542
55150,Demange Baudignecourt,55130,55,48.58652899518252,5.464945980978135
55153,Dieppe Sous Douaumont,55400,55,49.22171643581994,5.520104254439455
55154,Dieue Sur Meuse,55320,55,49.078970071057284,5.429330355174746
55155,Dombasle En Argonne,55120,55,49.14537349407041,5.197115367861441
55156,Dombras,55150,55,49.378843011344514,5.451652731134345
55157,Dommartin La Montagne,55160,55,49.02573418885869,5.599907319862589
55158,Dommary Baroncourt,55240,55,49.28029485346771,5.718565661045485
55159,Dompcevrin,55300,55,48.930558058971336,5.465834274465152
55160,Dompierre Aux Bois,55300,55,48.99911978619369,5.595737935736509
55162,Domremy La Canne,55240,55,49.29728396548008,5.694496996932038
55163,Doncourt Aux Templiers,55160,55,49.0600619058524,5.7205503112869325
55537,Douaumont Vaux,55100,55,49.21406172698832,5.451780587321652
55165,Doulcon,55110,55,49.38564044395714,5.155992713155516
55166,Dugny Sur Meuse,55100,55,49.09858342631898,5.366282439741946
55167,Dun Sur Meuse,55110,55,49.38387690214361,5.1963713987578295
55168,Duzey,55230,55,49.35968057981862,5.6176613042109
55169,Ecouviez,55600,55,49.53369704982305,5.453287421325674
55170,Ecurey En Verdunois,55150,55,49.355168543564176,5.342839075103803
55171,Eix,55400,55,49.18119671651239,5.474132641785754
55173,Epiez Sur Meuse,55140,55,48.542714319030665,5.627277469293478
55174,Epinonville,55270,55,49.27245590964954,5.083571200065801
55175,Erize La Brulee,55260,55,48.84656270975347,5.274718949034703
55177,Erize La Petite,55260,55,48.91315707094964,5.241698118226431
55178,Erize St Dizier,55000,55,48.81039606171499,5.280915765450027
55179,Erneville Aux Bois,55500,55,48.74251069470425,5.4082720275823455
55180,Esnes En Argonne,55100,55,49.20981597505979,5.203941700826075
55181,Etain,55400,55,49.220364955712554,5.631091041318344
55182,Eton,55240,55,49.26444850432195,5.688185778904512
55183,Etraye,55150,55,49.326360547077606,5.357313770403776
55184,Euville,55200,55,48.74467337342383,5.6525380046557885
55185,Evres,55250,55,48.98243116606109,5.1294256153594535
55186,Fains Veel,55000,55,48.784852476602396,5.110185020140726
55188,Flassigny,55600,55,49.474937106096675,5.442673530225978
55189,Fleury Devant Douaumont,55100,55,49.19481446968513,5.442575464655647
55191,Foameix Ornel,55400,55,49.235780471174024,5.60998625021339
55192,Fontaines St Clair,55110,55,49.36622653803872,5.246590120985971
55193,Forges Sur Meuse,55110,55,49.26012470920483,5.278047375328161
55194,Foucaucourt Sur Thabas,55250,55,49.0068550890464,5.099545472480337
55195,Foucheres Aux Bois,55500,55,48.63089439673559,5.249706468388765
55196,Fremereville Sous Les Cotes,55200,55,48.80427605137308,5.655961559371608
55197,Fresnes Au Mont,55260,55,48.8983968993497,5.443155138569729
55198,Fresnes En Woevre,55160,55,49.10141212864305,5.634956644838385
55199,Froidos,55120,55,49.060966575791994,5.120854715938757
55200,Fromereville Les Vallons,55100,55,49.16580483247415,5.293037380726841
55201,Fromezey,55400,55,49.209221183879265,5.582733145021715
55202,Futeau,55120,55,49.07634986137179,5.01111990187987
55204,Genicourt Sur Meuse,55320,55,49.044357247568485,5.442666422600318
55206,Gercourt Et Drillancourt,55110,55,49.28176433490512,5.237361378470382
55207,Gery,55000,55,48.786629419511485,5.303358815581571
55208,Gesnes En Argonne,55110,55,49.30610815937886,5.056554912806474
55258,Geville,55200,55,48.783220112588296,5.711945885908239
55210,Gimecourt,55260,55,48.84750331200807,5.3782163520618465
55211,Gincrey,55400,55,49.261593714277055,5.564192850278628
55212,Girauvoisin,55200,55,48.80566357395564,5.635830246973598
55214,Givrauval,55500,55,48.65655367792928,5.320462924284312
55215,Gondrecourt Le Chateau,55130,55,48.49242646069239,5.498074515550508
55216,Gouraincourt,55230,55,49.29887461510315,5.66668504028183
55217,Goussaincourt,55140,55,48.48259508287825,5.671823593180562
55218,Gremilly,55150,55,49.28287429801368,5.5128498508818655
55219,Grimaucourt En Woevre,55400,55,49.16400206843439,5.566753452914898
55220,Grimaucourt Pres Sampigny,55500,55,48.78025800460982,5.469566994047799
55221,Guerpont,55000,55,48.7194885099108,5.257107186272233
55222,Gussainville,55400,55,49.16678244620138,5.660943054703388
55224,Haironville,55000,55,48.686120558607016,5.091219208136106
55225,Halles Sous Les Cotes,55700,55,49.446532585541874,5.127324396026885
55226,Han Les Juvigny,55600,55,49.48162636891935,5.329790978945095
55229,Han Sur Meuse,55300,55,48.85393344877287,5.556011299391396
55228,Hannonville Sous Les Cotes,55210,55,49.03228795112145,5.652533638625128
55232,Harville,55160,55,49.09448263122412,5.72732188932925
55236,Haudainville,55100,55,49.124557766256395,5.431151086570675
55237,Haudiomont,55160,55,49.11304063153602,5.5380170678060185
55239,Haumont Pres Samogneux,55100,55,49.2788120370491,5.372950594034981
55241,Heippes,55220,55,48.99926969476273,5.276787958485725
55242,Hennemont,55160,55,49.14303222134526,5.672346274889645
55243,Herbeuville,55210,55,49.047680899821685,5.640457900309043
55244,Hermeville En Woevre,55400,55,49.17676804816625,5.604349071276352
55245,Heudicourt Sous Les Cotes,55210,55,48.93684007431932,5.694612250920752
55246,Hevilliers,55290,55,48.60236255712072,5.325208215534787
55247,Horville En Ornois,55130,55,48.48566433718672,5.468861549575723
55248,Houdelaincourt,55130,55,48.54997641980154,5.452113232994378
55250,Inor,55700,55,49.55268739357112,5.164879905059014
55251,Ippecourt,55220,55,49.03898981522107,5.21155366369507
55252,Ire Le Sec,55600,55,49.474329071321534,5.395544555666357
55255,Jametz,55600,55,49.42495862449371,5.392189845239468
55256,Jonville En Woevre,55160,55,49.06459092863759,5.776731407613103
55257,Jouy En Argonne,55120,55,49.137686279295735,5.221783770118861
55260,Julvecourt,55120,55,49.05963898809159,5.188015678784611
55261,Juvigny En Perthois,55170,55,48.597718842224246,5.166599788918381
55262,Juvigny Sur Loison,55600,55,49.461701111108546,5.335838758447818
55263,Koeur La Grande,55300,55,48.86482592648103,5.462451636625447
55264,Koeur La Petite,55300,55,48.85402068379682,5.460683867191395
55296,L Isle En Rigault,55000,55,48.71034849685416,5.03018963797926
55265,Labeuville,55160,55,49.088090283192614,5.772774521065614
55266,Lachalade,55120,55,49.178057329972646,4.985711673646932
55267,Lachaussee,55210,55,49.03219260494359,5.7984467202153
55268,Lacroix Sur Meuse,55300,55,48.984592108621285,5.53000271839737
55269,Lahaymeix,55260,55,48.93385158295304,5.418625596386667
55270,Lahayville,55300,55,48.89466982400106,5.7691658511772035
55271,Laheycourt,55800,55,48.90100206538855,5.03533090327841
55272,Laimont,55800,55,48.842156623335114,5.041660136127584
55274,Lamorville,55300,55,48.96246448035838,5.60004037878209
55275,Lamouilly,55700,55,49.547999452893876,5.24456041917607
55276,Landrecourt Lempire,55100,55,49.09544755774648,5.331703671386752
55278,Laneuville Au Rupt,55190,55,48.70713021239122,5.576032674218601
55279,Laneuville Sur Meuse,55700,55,49.49800427239708,5.116542947977247
55280,Lanheres,55400,55,49.21001323734406,5.711720492983071
55281,Latour En Woevre,55160,55,49.09196342522573,5.801648769221318
55282,Lavallee,55260,55,48.80668858516561,5.33535646582171
55284,Lavincourt,55170,55,48.65711671592735,5.145485519880007
55285,Lavoye,55120,55,49.04928038767761,5.136579507368221
55061,Le Bouchon Sur Saulx,55500,55,48.61057941932241,5.224247547620344
55116,Le Claon,55120,55,49.14518645084014,4.992455564420965
55379,Le Neufour,55120,55,49.12899792578184,4.98389881037162
55286,Lemmes,55220,55,49.06958645599205,5.29225181767728
55288,Lerouville,55200,55,48.77718521612072,5.537935183120856
55172,Les Eparges,55160,55,49.064847897698996,5.58546324170645
55123,Les Hauts De Chee,55000,55,48.87244163745356,5.171142791832473
55253,Les Islettes,55120,55,49.10976934978401,5.0090177531783775
55347,Les Monthairons,55320,55,49.0451133472574,5.386129014664512
55401,Les Paroches,55300,55,48.91054975662577,5.481977666552445
55436,Les Roises,55130,55,48.45212858101892,5.632678993377072
55497,Les Souhesmes Rampont,55220,55,49.08738467233994,5.247708059001479
55254,Les Trois Domaines,55220,55,48.96838511136792,5.292139545477205
55289,Levoncourt,55260,55,48.82728914382625,5.351903548121903
55290,Lignieres Sur Aire,55260,55,48.812512891755446,5.390532859621599
55291,Ligny En Barrois,55500,55,48.65715146966178,5.298890515933058
55292,Liny Devant Dun,55110,55,49.353148247855515,5.21156989620051
55293,Lion Devant Dun,55110,55,49.4163902892206,5.255675657345719
55295,Lisle En Barrois,55250,55,48.92095004343071,5.081641861725281
55297,Lissey,55150,55,49.38126789635491,5.359851631281801
55298,Loisey,55000,55,48.770913380612406,5.3000494664844116
55299,Loison,55230,55,49.304584761671556,5.590765077542675
55301,Longchamps Sur Aire,55260,55,48.91303000776616,5.309548546412163
55300,Longeaux,55500,55,48.64047639336734,5.327413330558924
55302,Longeville En Barrois,55000,55,48.73871283231804,5.205112005198708
55303,Loupmont,55300,55,48.866301853006995,5.678251002957676
55304,Louppy Le Chateau,55800,55,48.866786988827286,5.073644849895561
55306,Louppy Sur Loison,55600,55,49.43928311856506,5.338796746631808
55307,Louvemont Cote Du Poivre,55100,55,49.23725920814931,5.399552913569966
55310,Luzy St Martin,55700,55,49.52924378781361,5.141769957838412
55311,Maizeray,55160,55,49.10371060615438,5.700860069229088
55312,Maizey,55300,55,48.923963687390014,5.541781798479781
55313,Malancourt,55270,55,49.23751748704787,5.17662986364358
55315,Mandres En Barrois,55290,55,48.50282972012171,5.398802433048081
55316,Mangiennes,55150,55,49.34535044528194,5.53788466823546
55317,Manheulles,55160,55,49.122879667431555,5.595594945581065
55320,Marcheville En Woevre,55160,55,49.08947538321919,5.678962320278874
55321,Marre,55100,55,49.20285091781723,5.297486358614989
55322,Marson Sur Barboure,55190,55,48.63354545201905,5.444518411525037
55323,Martincourt Sur Meuse,55700,55,49.53480792235079,5.178757887114564
55324,Marville,55600,55,49.442331300258175,5.438988257634923
55325,Maucourt Sur Orne,55400,55,49.253047210734394,5.513618581768446
55326,Maulan,55500,55,48.66717294781545,5.259328289268326
55327,Mauvages,55190,55,48.59320495031167,5.551245416467249
55328,Maxey Sur Vaise,55140,55,48.5321336344434,5.6577020558383815
55329,Mecrin,55300,55,48.828827517405514,5.546590165466387
55330,Meligny Le Grand,55190,55,48.67460515522649,5.494161049481363
55331,Meligny Le Petit,55190,55,48.65740680831402,5.468805487080434
55332,Menaucourt,55500,55,48.65449962360404,5.361798284351131
55333,Menil Aux Bois,55260,55,48.80366274350341,5.441345982630997
55334,Menil La Horgne,55190,55,48.703527890725155,5.539691717678608
55335,Menil Sur Saulx,55500,55,48.61797381635718,5.206536328177979
55336,Merles Sur Loison,55150,55,49.36582307295703,5.471505825727467
55338,Milly Sur Bradon,55110,55,49.39911412377051,5.217464297760323
55339,Mogeville,55400,55,49.24593086078461,5.540248005952628
55340,Mogneville,55800,55,48.77495327326665,4.98813236306629
55341,Moirey Flabas Crepion,55150,55,49.301292889427216,5.384736577545579
55345,Mont Devant Sassey,55110,55,49.41473087941874,5.163710025072194
55343,Montblainville,55270,55,49.2404534560339,4.990232959648563
55344,Montbras,55140,55,48.51541730612135,5.694799660756259
55346,Montfaucon D Argonne,55270,55,49.25512408789804,5.1352776482790725
55348,Montiers Sur Saulx,55290,55,48.54132009203664,5.26066961435734
55349,Montigny Devant Sassey,55110,55,49.42721507985591,5.134316290612205
55350,Montigny Les Vaucouleurs,55140,55,48.57842316901308,5.604144646806322
55351,Montmedy,55600,55,49.516445157114475,5.367140212995421
55352,Montplonne,55000,55,48.69825884175626,5.165944518617301
55353,Montsec,55300,55,48.89020009102241,5.725420772954603
55355,Montzeville,55100,55,49.18812602467037,5.212318535060532
55356,Moranville,55400,55,49.177915225616765,5.541497610576682
55357,Morgemoulin,55400,55,49.230384139763046,5.5693420137729195
55359,Morley,55290,55,48.574301219085655,5.224661575094316
55360,Mouilly,55320,55,49.056592427358375,5.536619024661373
55361,Moulainville,55400,55,49.158720797535096,5.479232976208829
55362,Moulins St Hubert,55700,55,49.577293362121495,5.128919335734187
55363,Moulotte,55160,55,49.100915978960245,5.750510617959494
55364,Mouzay,55700,55,49.45308251594676,5.24353219329257
55365,Murvaux,55110,55,49.397341792229234,5.276940546881857
55367,Muzeray,55230,55,49.33850387807452,5.6228147511310835
55368,Naives En Blois,55190,55,48.666529015622956,5.550796322831522
55369,Naives Rosieres,55000,55,48.80311035744241,5.230884667695493
55370,Naix Aux Forges,55500,55,48.63121326934879,5.37041975995627
55371,Nancois Le Grand,55500,55,48.71288638884914,5.3927284312118555
55372,Nancois Sur Ornain,55500,55,48.721996690520996,5.317902134916826
55373,Nant Le Grand,55500,55,48.68088062479583,5.232336466186325
55374,Nant Le Petit,55500,55,48.65135813033634,5.227651451207945
55375,Nantillois,55270,55,49.302563713087366,5.132744990873908
55376,Nantois,55500,55,48.6277534564359,5.3418069142133975
55377,Nepvant,55700,55,49.53639359438735,5.223044026824921
55378,Nettancourt,55800,55,48.87401831599994,4.935966779626682
55380,Neuville En Verdunois,55260,55,48.94891431118489,5.305977149930841
55381,Neuville Les Vaucouleurs,55140,55,48.57722929558548,5.657278709306923
55382,Neuville Sur Ornain,55800,55,48.823533923939806,5.049658808162062
55383,Neuvilly En Argonne,55120,55,49.16132310198574,5.032783820771904
55384,Nicey Sur Aire,55260,55,48.89433489611168,5.35052145146229
55385,Nixeville Blercourt,55120,55,49.11154744542834,5.255501107598402
55386,Nonsard Lamarche,55210,55,48.93665559531111,5.761812576937987
55387,Nouillonpont,55230,55,49.35709996490185,5.665772873452432
55388,Noyers Auzecourt,55800,55,48.88520902141964,4.983372324539709
55389,Nubecourt,55250,55,49.00616197736931,5.175558381196716
55391,Olizy Sur Chiers,55700,55,49.55730728106826,5.206868350440665
55394,Ornes,55150,55,49.2576542975537,5.481630074612289
55395,Osches,55220,55,49.045314493333514,5.250398049598241
55396,Ourches Sur Meuse,55190,55,48.667151773887554,5.692950081968244
55397,Pagny La Blanche Cote,55140,55,48.537600613428786,5.740014645054292
55398,Pagny Sur Meuse,55190,55,48.69042009982826,5.732027355620528
55399,Pareid,55160,55,49.1273748679389,5.707320019283653
55400,Parfondrupt,55400,55,49.14905207132253,5.723631616229789
55403,Peuvillers,55150,55,49.36784956522262,5.4029876192166695
55404,Pierrefitte Sur Aire,55260,55,48.90506151504542,5.345515381004793
55405,Pillon,55230,55,49.371219993886285,5.584835312775968
55406,Pintheville,55160,55,49.11618041681567,5.6685306366282795
55407,Pont Sur Meuse,55200,55,48.81098034990728,5.553136103204411
55408,Pouilly Sur Meuse,55700,55,49.53872212183491,5.122687089177363
55409,Pretz En Argonne,55250,55,48.958512292752005,5.1453000922758605
55410,Quincy Landzecourt,55600,55,49.489223381787184,5.294694672103177
55442,Raival,55260,55,48.88470454271021,5.249249507953582
55411,Rambluzin Et Benoite Vaux,55220,55,48.98646316806703,5.337971540480671
55412,Rambucourt,55300,55,48.83054551072069,5.75327552260397
55414,Rancourt Sur Ornain,55800,55,48.819069720875035,4.9162160566139494
55415,Ranzieres,55300,55,49.0243839903677,5.502501931108034
55416,Rarecourt,55120,55,49.07636260519787,5.088509474713415
55419,Recicourt,55120,55,49.15422753967424,5.16153435548342
55420,Recourt Le Creux,55220,55,48.99778558554593,5.377266573713398
55421,Reffroy,55190,55,48.62656115408431,5.469645408571221
55422,Regneville Sur Meuse,55110,55,49.254141927745906,5.315868816576549
55423,Rembercourt Sommaisne,55250,55,48.92071547874876,5.181253536834932
55424,Remennecourt,55800,55,48.79904475678315,4.9141383526721825
55425,Remoiville,55600,55,49.44134730296308,5.380831230858492
55426,Resson,55000,55,48.772480247810805,5.230410141558403
55427,Revigny Sur Ornain,55800,55,48.8268430334824,4.976851083944949
55428,Reville Aux Bois,55150,55,49.33783872280797,5.343673956448384
55429,Riaville,55160,55,49.09600011315117,5.667113725099734
55430,Ribeaucourt,55290,55,48.542245566888035,5.355077366354614
55431,Richecourt,55300,55,48.894440580646815,5.7544722957740415
55433,Rigny La Salle,55140,55,48.62536754955457,5.7210165236314126
55434,Rigny St Martin,55140,55,48.61013333694425,5.751967852219037
55435,Robert Espagne,55000,55,48.72926916441287,5.025332923479638
55437,Romagne Sous Les Cotes,55150,55,49.33025556380257,5.468214802031981
55438,Romagne Sous Montfaucon,55110,55,49.32754249705081,5.068166653388339
55439,Ronvaux,55160,55,49.131478926797456,5.559545602296584
55443,Rouvres En Woevre,55400,55,49.22319872540396,5.701175448752626
55444,Rouvrois Sur Meuse,55300,55,48.9495352560511,5.525162957384063
55445,Rouvrois Sur Othain,55230,55,49.38827462807201,5.63191805855835
55446,Rumont,55000,55,48.82805046164772,5.278128877628539
55447,Rupt Aux Nonains,55170,55,48.669684286117146,5.089571712466499
55448,Rupt Devant St Mihiel,55260,55,48.88720126099331,5.398095150528926
55449,Rupt En Woevre,55320,55,49.0648458841415,5.4973180241374475
55450,Rupt Sur Othain,55150,55,49.41577794617557,5.477655456986255
55466,Salmagne,55000,55,48.758717049882875,5.331393159208678
55468,Samogneux,55100,55,49.25799925238444,5.351489501781226
55467,Sampigny,55300,55,48.81978251331379,5.486913365135175
55469,Sassey Sur Meuse,55110,55,49.413160585962856,5.179929013636803
55470,Saudrupt,55000,55,48.69400814943563,5.054895978863505
55471,Saulmory Villefranche,55110,55,49.43839656199337,5.171271067070547
55472,Saulvaux,55500,55,48.69223080853445,5.462696011787087
55473,Saulx Les Champlon,55160,55,49.0738824477572,5.65726186638191
55474,Sauvigny,55140,55,48.500573833272796,5.7322040704546176
55475,Sauvoy,55190,55,48.63834893648749,5.60526909335304
55476,Savonnieres Devant Bar,55000,55,48.74908191988572,5.1758391649590045
55477,Savonnieres En Perthois,55170,55,48.602314855695234,5.142850806377819
55479,Seigneulles,55000,55,48.85215343796148,5.232510897519186
55481,Senon,55230,55,49.2805035565979,5.620002899203826
55482,Senoncourt Les Maujouy,55220,55,49.058557111196706,5.345902744457183
55484,Septsarges,55270,55,49.28747384435499,5.177476243995393
55485,Sepvigny,55140,55,48.56421966622305,5.693820274130447
55517,Seuil D Argonne,55250,55,48.9712673183717,5.052706879820392
55487,Seuzey,55300,55,48.98998124011414,5.561291459436681
55488,Silmont,55000,55,48.7358154404618,5.246280084315586
55489,Sivry La Perche,55100,55,49.13796829896147,5.255312357095547
55490,Sivry Sur Meuse,55110,55,49.3301699288636,5.285822036603797
55492,Sommedieue,55320,55,49.09839902045757,5.478207747487167
55493,Sommeilles,55800,55,48.91529138177428,4.965857440213601
55494,Sommelonne,55170,55,48.6762588700189,5.0391692609166565
55495,Sorbey,55230,55,49.40194065485057,5.585843123524295
55496,Sorcy St Martin,55190,55,48.7197278398728,5.659001912301033
55498,Souilly,55220,55,49.03232150407898,5.296381246799376
55500,Spincourt,55230,55,49.33592362020841,5.692522425019002
55452,St Amand Sur Ornain,55500,55,48.626300321784726,5.39275141193696
55453,St Andre En Barrois,55220,55,49.00962989066328,5.2321301314327195
55454,St Aubin Sur Aire,55500,55,48.717088035701465,5.449865271870601
55456,St Germain Sur Meuse,55140,55,48.647319424518194,5.716880202696984
55457,St Hilaire En Woevre,55160,55,49.074977931647204,5.7021918674739585
55458,St Jean Les Buzy,55400,55,49.17033932811708,5.740795146677556
55459,St Joire,55130,55,48.58217725417691,5.409172004145743
55460,St Julien Sous Les Cotes,55200,55,48.8212266192759,5.6204835754881355
55461,St Laurent Sur Othain,55150,55,49.397467578360406,5.528704486430367
55462,St Maurice Sous Les Cotes,55210,55,49.011476894898934,5.669272410425897
55463,St Mihiel,55300,55,48.894089554813704,5.574542863506981
55464,St Pierrevillers,55230,55,49.37359859963709,5.685106724762617
55465,St Remy La Calonne,55160,55,49.03865728096754,5.5877973198085265
55501,Stainville,55500,55,48.64188867242338,5.178961888611789
55502,Stenay,55700,55,49.49783441186288,5.199701369680753
55503,Taillancourt,55140,55,48.51253857000984,5.662762290816988
55504,Tannois,55000,55,48.71915067858518,5.21953561724017
55505,Thierville Sur Meuse,55840,55,49.17203537113294,5.34044298325169
55506,Thillombois,55260,55,48.953567024880925,5.383533238660851
55507,Thillot,55210,55,49.02465554987091,5.666965947210263
55508,Thonne La Long,55600,55,49.57173533876127,5.4275743528802325
55509,Thonne Le Thil,55600,55,49.57310734419322,5.338090519317987
55510,Thonne Les Pres,55600,55,49.533147211919626,5.34179770236908
55511,Thonnelle,55600,55,49.554428724142255,5.355740561301387
55512,Tilly Sur Meuse,55220,55,48.99509880217013,5.410390750280208
55514,Tremont Sur Saulx,55000,55,48.743507930167326,5.069414043094824
55515,Tresauvaux,55160,55,49.07989694803445,5.611506320142187
55516,Treveray,55130,55,48.60434097991083,5.392902430934317
55519,Tronville En Barrois,55310,55,48.718427175032005,5.277450964576703
55520,Troussey,55190,55,48.70103931145526,5.696556349441586
55521,Troyon,55300,55,48.9989629725836,5.492811614541265
55522,Ugny Sur Meuse,55140,55,48.63719470624318,5.688237263971273
55523,Vacherauville,55100,55,49.23131217167952,5.348140699649883
55525,Vadelaincourt,55220,55,49.071185299219195,5.257785847747944
55526,Vadonville,55200,55,48.80013096023839,5.513904556903043
55366,Val D Ornain,55000,55,48.813110615179795,5.088634348358006
55530,Valbois,55300,55,48.92969607239065,5.616775827231455
55527,Varennes En Argonne,55270,55,49.22986674669254,5.013137620249468
55528,Varneville,55300,55,48.87679482813096,5.6594234879189855
55531,Vassincourt,55800,55,48.801028327563444,5.026036872385443
55532,Vaubecourt,55250,55,48.94459147964601,5.106295323205641
55533,Vaucouleurs,55140,55,48.61623958115326,5.6362604086750565
55534,Vaudeville Le Haut,55130,55,48.44647808540134,5.594026043236109
55535,Vaudoncourt,55230,55,49.31738191897993,5.644429242225506
55536,Vauquois,55270,55,49.19873495504109,5.083223003233954
55540,Vaux Les Palameix,55300,55,49.02346073044997,5.550584925118171
55541,Vavincourt,55000,55,48.82455536015489,5.195987496772226
55543,Velaines,55500,55,48.696040013435635,5.299724409161962
55544,Velosnes,55600,55,49.500780289950804,5.455935803362985
55545,Verdun,55100,55,49.14396045395745,5.3608980604871785
55546,Verneuil Grand,55600,55,49.53501023877175,5.422529464049658
55547,Verneuil Petit,55600,55,49.54457609665252,5.41899742202193
55549,Very,55270,55,49.23633924627293,5.089428369801498
55552,Vigneul Sous Montmedy,55600,55,49.50890654575069,5.330970957272852
55551,Vigneulles Les Hattonchatel,55210,55,48.986260304600535,5.7345499364264825
55553,Vignot,55200,55,48.77854222782455,5.612250826264404
55555,Ville Devant Belrain,55260,55,48.87728755406792,5.359354081637232
55556,Ville Devant Chaumont,55150,55,49.290572193552954,5.429913637933829
55557,Ville En Woevre,55160,55,49.13993439305385,5.610799925796011
55567,Ville Sur Cousances,55120,55,49.07959537178512,5.179644790715207
55568,Ville Sur Saulx,55000,55,48.71748058323752,5.07006822528669
55554,Villecloye,55600,55,49.508170811015816,5.404990514167053
55559,Villeroy Sur Meholle,55190,55,48.61416068278973,5.567045969083368
55560,Villers Aux Vents,55800,55,48.859750574062986,5.023062285734894
55561,Villers Devant Dun,55110,55,49.39841657314287,5.106561472759516
55562,Villers Le Sec,55500,55,48.62596555308626,5.300081419228704
55563,Villers Les Mangiennes,55150,55,49.355933346336094,5.502340066107033
55565,Villers Sous Pareid,55160,55,49.127041238806875,5.745574793135073
55566,Villers Sur Meuse,55220,55,49.023465933329334,5.39855342900448
55569,Villotte Devant Louppy,55250,55,48.88993077096765,5.077600521773031
55570,Villotte Sur Aire,55260,55,48.85684142190352,5.359211195314519
55571,Vilosnes Haraumont,55110,55,49.33967092422948,5.251281939822737
55572,Vittarville,55150,55,49.38485055074111,5.4127555563435745
55573,Void Vacon,55190,55,48.67880034723163,5.620682798612183
55574,Vouthon Bas,55130,55,48.48879477912005,5.616491213005414
55575,Vouthon Haut,55130,55,48.47946671697118,5.608383000624763
55577,Waly,55250,55,49.02342030230339,5.095588172084483
55578,Warcq,55400,55,49.190003092140145,5.643882436493455
55579,Watronville,55160,55,49.13688465931641,5.541393192034698
55580,Wavrille,55150,55,49.31891643291545,5.37453184252154
55581,Willeroncourt,55500,55,48.71574629806915,5.357234647370303
55582,Wiseppe,55700,55,49.46046476761926,5.164066117537971
55583,Woel,55210,55,49.03891460998963,5.745886037954115
55584,Woimbey,55300,55,48.96633103282011,5.450377798733726
55586,Xivray Et Marvoisin,55300,55,48.86729452439779,5.728163070253567
