city_code,city_name,postal_code,department_code,latitude,longitude
74001,Abondance,74360,74,46.252636480514354,6.733402871983106
74002,Alby Sur Cheran,74540,74,45.814521651139636,6.019677706696552
74003,Alex,74290,74,45.8757475054051,6.233446108349645
74004,Alleves,74540,74,45.75389754681734,6.0819602114334135
74005,Allinges,74200,74,46.33617238120661,6.461257532240448
74006,Allonzier La Caille,74350,74,45.999726979241984,6.100911361284519
74007,Amancy,74800,74,46.07217967142479,6.326906356313369
74008,Ambilly,74100,74,46.1956747915732,6.223926943461002
74009,Andilly,74350,74,46.06975347334172,6.072586146005163
74010,Annecy,74000,74,45.90235447632647,6.126403583730467
74012,Annemasse,74100,74,46.18903280982999,6.247595264809545
74013,Anthy Sur Leman,74200,74,46.35373968737701,6.4273554689407595
74014,Araches La Frasse,74300,74,46.028197145622,6.664613133180636
74015,Arbusigny,74930,74,46.08900556684581,6.20121760919527
74016,Archamps,74160,74,46.12071534730456,6.1416730942184
74018,Arenthon,74800,74,46.09611202135223,6.3381101150227614
74019,Argonay,74370,74,45.947653205236534,6.1479912322733075
74020,Armoy,74200,74,46.353024074046175,6.514293111170478
74021,Arthaz Pont Notre Dame,74380,74,46.16026758867605,6.266028772639952
74024,Ayse,74130,74,46.0894668629782,6.4409162208244055
74025,Ballaison,74140,74,46.29062715659654,6.350963435592442
74029,Bassy,74910,74,45.99030199334392,5.830011271095421
74031,Beaumont,74160,74,46.097793527568655,6.120179807839933
74032,Bellevaux,74470,74,46.220864666070995,6.548325943924338
74033,Bernex,74500,74,46.35662713439203,6.691481545609756
74035,Bloye,74150,74,45.82118575010628,5.950141478798274
74036,Bluffy,74290,74,45.867091234070315,6.224141185389122
74037,Boege,74420,74,46.21807561515004,6.387427753585305
74038,Bogeve,74250,74,46.1946078328298,6.439734508437489
74040,Bonne,74380,74,46.173497624183796,6.318084256635597
74041,Bonnevaux,74360,74,46.29260628031312,6.6667192329587
74042,Bonneville,74130,74,46.07860135431557,6.403955033068373
74043,Bons En Chablais,74890,74,46.26439575803683,6.357850544189967
74044,Bossey,74160,74,46.149500605653714,6.16987577735465
74046,Boussy,74150,74,45.85121995659203,5.9835186597429475
74048,Brenthonne,74890,74,46.27139115724752,6.396184337156456
74049,Brizon,74130,74,46.03459845296736,6.432573501118639
74050,Burdignin,74420,74,46.23349460966587,6.426473925648822
74051,Cercier,74350,74,46.0211331774417,6.046491469263188
74052,Cernex,74350,74,46.0576694206344,6.038298195420127
74053,Cervens,74550,74,46.2772205650447,6.446598146109013
74054,Chainaz Les Frasses,74540,74,45.77982980016654,5.989566351190156
74055,Challonges,74910,74,46.02367299096231,5.826834137770039
74056,Chamonix Mont Blanc,74400,74,45.92958993564356,6.929096305064133
74057,Champanges,74500,74,46.37034976479437,6.55289291504822
74061,Chapeiry,74540,74,45.838966445357954,6.03952748292642
74062,Charvonnex,74370,74,45.982552999961,6.157300516777527
74063,Chatel,74390,74,46.247903769279816,6.818755127324014
74064,Chatillon Sur Cluses,74300,74,46.088770553689244,6.579461550544668
74065,Chaumont,74270,74,46.04767321948573,5.944453941051893
74066,Chavannaz,74270,74,46.05031540606439,6.016094091091093
74067,Chavanod,74650,74,45.885729825151174,6.05167565984215
74068,Chene En Semine,74270,74,46.050115498559016,5.856817261884272
74069,Chenex,74520,74,46.105355769368046,5.992357149229756
74070,Chens Sur Leman,74140,74,46.31002770182371,6.267262629545089
74071,Chessenaz,74270,74,46.03988845387971,5.906831511789293
74072,Chevaline,74210,74,45.73126363535809,6.206880835084187
74073,Chevenoz,74500,74,46.331808118721426,6.639948701862847
74074,Chevrier,74520,74,46.10938010981668,5.910968629634545
74075,Chilly,74270,74,45.98806665545329,5.955999717225047
74076,Choisy,74330,74,45.99851790137023,6.050855676853956
74077,Clarafond Arcine,74270,74,46.08338778611418,5.894826760569483
74078,Clermont,74270,74,45.972570519398474,5.908382618708103
74081,Cluses,74300,74,46.06247689055883,6.577458711368239
74082,Collonges Sous Saleve,74160,74,46.13477612665531,6.159631326030857
74083,Combloux,74920,74,45.88792750759863,6.636205232493349
74086,Contamine Sarzin,74270,74,46.02227694368854,5.985409823308274
74087,Contamine Sur Arve,74130,74,46.13156417870909,6.340306582729982
74088,Copponex,74350,74,46.045224067100776,6.068799974246026
74089,Cordon,74700,74,45.90785515289717,6.567736738790508
74090,Cornier,74800,74,46.08960340616226,6.292342744204586
74094,Cranves Sales,74380,74,46.1978923058989,6.314537428671979
74095,Crempigny Bonneguete,74150,74,45.945915452619516,5.9008734452259795
74096,Cruseilles,74350,74,46.04247627496193,6.111058476102322
74097,Cusy,74540,74,45.76123835452492,6.043540720323279
74098,Cuvat,74350,74,45.976047809488804,6.107326445127682
74099,Demi Quartier,74120,74,45.87280370344394,6.628701772899598
74100,Desingy,74270,74,46.00214770304737,5.886962616775766
74101,Dingy En Vuache,74520,74,46.08734356418098,5.949277567004577
74102,Dingy St Clair,74230,74,45.926700339710095,6.25404663952989
74103,Domancy,74700,74,45.90903083425083,6.6643681635915275
74104,Doussard,74210,74,45.76365492356471,6.221072260837476
74105,Douvaine,74140,74,46.30755195133305,6.300792260662833
74106,Draillant,74550,74,46.295629401890785,6.473443271841
74107,Droisy,74270,74,45.962093774580815,5.882126819869898
74108,Duingt,74410,74,45.81914240291816,6.196960420509572
74109,Eloise,01200,74,46.085319319659675,5.847402712462378
74111,Entrevernes,74410,74,45.77534260766204,6.180904795265954
74112,Epagny Metz Tessy,74330,74,45.94299555644285,6.093365254680218
74114,Essert Romand,74110,74,46.20413824607384,6.658880950970008
74116,Eteaux,74800,74,46.06104763844046,6.270254692694289
74117,Etercy,74150,74,45.89226572799544,6.00627240680153
74118,Etrembieres,74100,74,46.16958563875846,6.210827595387823
74119,Evian Les Bains,74500,74,46.3910946486162,6.591088223493202
74121,Excenevex,74140,74,46.35021655540516,6.34056602993979
74122,Faucigny,74130,74,46.11500312745648,6.36891881234453
74123,Faverges Seythenex,74210,74,45.73423525368813,6.289608729534056
74124,Feigeres,74160,74,46.11291625613859,6.072183523146768
74126,Fessy,74890,74,46.27446128134861,6.416693604405854
74127,Feternes,74500,74,46.346632504355,6.558634016281276
74282,Filliere,74370,74,46.00565093289336,6.227490674615073
74128,Fillinges,74250,74,46.17026671041438,6.346503359904
74130,Franclens,74910,74,46.04406131880499,5.827068735177168
74131,Frangy,74270,74,46.02312287752332,5.922410729112379
74133,Gaillard,74240,74,46.18408754784531,6.205095545400095
74135,Giez,74210,74,45.734759861341736,6.246307896373379
74212,Glieres Val De Borne,74130,74,45.985472856400634,6.3933419361101915
74137,Groisy,74570,74,46.017794691434105,6.172196907708683
74138,Gruffy,74540,74,45.780949120818136,6.064262948527039
74139,Habere Lullin,74420,74,46.23468252922406,6.462804783551138
74140,Habere Poche,74420,74,46.25429060717414,6.471874953400484
74141,Hauteville Sur Fier,74150,74,45.90760939279246,5.978404788497016
74142,Hery Sur Alby,74540,74,45.78996610728582,6.008705137897178
74144,Jonzier Epagny,74520,74,46.07548444436293,5.990158354703299
74145,Juvigny,74100,74,46.21557665552669,6.290486987374735
74026,La Balme De Sillingy,74330,74,45.96482903333438,6.042280666294507
74027,La Balme De Thuy,74230,74,45.90365258659077,6.289523597452485
74030,La Baume,74430,74,46.284203172773374,6.6105291673094175
74058,La Chapelle D Abondance,74360,74,46.30411804874238,6.801581756545671
74059,La Chapelle Rambaud,74800,74,46.07323074248913,6.238296368487115
74060,La Chapelle St Maurice,74410,74,45.771675742941525,6.154813613769437
74080,La Clusaz,74220,74,45.89809691042656,6.465407784643042
74091,La Cote D Arbroz,74110,74,46.178365197440456,6.637188089363596
74129,La Forclaz,74200,74,46.31568445847533,6.616116488261631
74193,La Muraz,74560,74,46.11902722209256,6.196746222666541
74223,La Riviere Enverse,74440,74,46.084794548290354,6.627284345648108
74224,La Roche Sur Foron,74800,74,46.04612366722857,6.300162469785926
74284,La Tour,74250,74,46.135582597029625,6.424517709322217
74295,La Vernaz,74200,74,46.30683612854531,6.597641511719171
74146,Larringes,74500,74,46.37110076190014,6.586152195252325
74147,Lathuile,74210,74,45.77265741438054,6.1963553440519625
74034,Le Biot,74430,74,46.27433939829925,6.6407874911762015
74045,Le Bouchet,74230,74,45.804120678943846,6.384691737033122
74136,Le Grand Bornand,74450,74,45.959581320720616,6.479701214533106
74221,Le Reposoir,74950,74,45.99327203428738,6.518312970341608
74259,Le Sappey,74350,74,46.08880802036376,6.160637659825301
74079,Les Clefs,74230,74,45.848632799445326,6.331095534001433
74085,Les Contamines Montjoie,74170,74,45.78547128956521,6.736234086718009
74134,Les Gets,74260,74,46.1553370271713,6.6570877723481985
74143,Les Houches,74310,74,45.891892591677724,6.799066608687459
74302,Les Villards Sur Thones,74230,74,45.9148454256288,6.374568567264911
74148,Leschaux,74320,74,45.77354977466215,6.117307965343944
74150,Loisin,74140,74,46.27964844872258,6.301017686339519
74151,Lornay,74150,74,45.90922497730023,5.892424326893585
74152,Lovagny,74330,74,45.90493402040966,6.036055388494874
74153,Lucinges,74380,74,46.19604426184185,6.328379506743671
74154,Lugrin,74500,74,46.39085698229111,6.674830513901706
74155,Lullin,74470,74,46.27651803434101,6.510702384968761
74156,Lully,74890,74,46.29345135915101,6.40860951775367
74157,Lyaud,74200,74,46.33178471816582,6.519303697994713
74158,Machilly,74140,74,46.250198193546254,6.322279790533817
74159,Magland,74300,74,46.00904223049555,6.645506488470405
74160,Manigod,74230,74,45.843927112577035,6.398131388673692
74162,Marcellaz,74250,74,46.14350226713965,6.357849155379592
74161,Marcellaz Albanais,74150,74,45.87314194359347,6.001689212128895
74163,Margencel,74200,74,46.32939060658566,6.421698636094919
74164,Marignier,74970,74,46.09774306549539,6.493634475324388
74165,Marigny St Marcel,74150,74,45.83150251928994,5.987965272122938
74166,Marin,74200,74,46.37417255783477,6.525601029926315
74168,Marlioz,74270,74,46.027441463557594,6.0077477668555925
74169,Marnaz,74460,74,46.04875564766659,6.523853097318632
74170,Massingy,74150,74,45.82536319919736,5.910075609447492
74171,Massongy,74140,74,46.32381022849587,6.3213393533214095
74172,Maxilly Sur Leman,74500,74,46.394644588708005,6.634202891545597
74173,Megeve,74120,74,45.83968208539552,6.624160796258725
74174,Megevette,74490,74,46.21047991767426,6.517004000912656
74175,Meillerie,74500,74,46.39982807301167,6.731893917357352
74176,Menthon St Bernard,74290,74,45.86700227736878,6.191696401203618
74177,Menthonnex En Bornes,74350,74,46.05881437319758,6.18032421933202
74178,Menthonnex Sous Clermont,74270,74,45.95964179948873,5.938241547217183
74179,Mesigny,74330,74,45.98682780191503,6.007815652371336
74180,Messery,74140,74,46.34740701838946,6.298240881417639
74183,Mieussy,74440,74,46.15199729621362,6.537896563190052
74184,Minzier,74270,74,46.06030229701068,5.991218027096153
74185,Monnetier Mornex,74560,74,46.15250972457774,6.214272949277856
74189,Mont Saxonnex,74130,74,46.03155220355641,6.482791403840489
74186,Montagny Les Lanches,74600,74,45.85796634622055,6.045345810240445
74188,Montriond,74110,74,46.20475322871896,6.744766610819407
74190,Morillon,74440,74,46.062046217568295,6.671689290368461
74191,Morzine,74110,74,46.17200209613087,6.743209530912804
74192,Moye,74150,74,45.86798491424895,5.8971447681564335
74194,Mures,74540,74,45.80741632053756,6.039104984458321
74195,Musieges,74270,74,46.0145680137137,5.952154503309448
74196,Nancy Sur Cluses,74300,74,46.022561322825446,6.575854788679959
74197,Nangy,74380,74,46.148294956903214,6.304585163582386
74198,Naves Parmelan,74370,74,45.93318525192579,6.195587796527839
74199,Nernier,74140,74,46.360757066553596,6.304955897076457
74200,Neuvecelle,74500,74,46.39291231544814,6.609128153826854
74201,Neydens,74160,74,46.11886143219904,6.110319568921074
74202,Nonglard,74330,74,45.92176786084326,6.027915171059197
74203,Novel,74500,74,46.36058539835683,6.766070714085133
74205,Onnion,74490,74,46.18582882039708,6.50210431693735
74206,Orcier,74550,74,46.31238309006358,6.502594091315854
74208,Passy,74190,74,45.95790601142433,6.750692818923342
74209,Peillonnex,74250,74,46.132637185977714,6.382466089564359
74210,Perrignier,74550,74,46.306555204994126,6.436387898302419
74211,Pers Jussy,74930,74,46.10058326326442,6.26395219374644
74213,Poisy,74330,74,45.91911910043903,6.062325160996998
74215,Praz Sur Arly,74120,74,45.82798960168499,6.585864340535606
74216,Presilly,74160,74,46.084607741590496,6.08903907289608
74218,Publier,74500,74,46.39144834794685,6.542833584800697
74219,Quintal,74600,74,45.83214513748936,6.091130422850197
74220,Reignier Esery,74930,74,46.13673230505249,6.2646450441179615
74222,Reyvroz,74200,74,46.32311411013217,6.56163670225356
74225,Rumilly,74150,74,45.85540988232064,5.941244272291678
74255,Sales,74150,74,45.880923357073996,5.960928875004515
74256,Sallanches,74700,74,45.93225728563608,6.604118324188118
74257,Sallenoves,74270,74,46.003968406536174,5.992770442689073
74258,Samoens,74340,74,46.07623372974906,6.755270648957719
74260,Savigny,74520,74,46.06798341506473,5.948731073791756
74261,Saxel,74420,74,46.24573726774631,6.402080027404674
74262,Scientrier,74930,74,46.12105944536357,6.317605286602492
74263,Sciez,74140,74,46.32431405105695,6.374828292015958
74264,Scionzier,74950,74,46.049741024257195,6.544982525085137
74265,Serraval,74230,74,45.806430790334424,6.330606996713245
74266,Servoz,74310,74,45.94579774876392,6.7836479882827465
74267,Sevrier,74320,74,45.857182307922706,6.137279884125796
74269,Seyssel,74910,74,45.962121218334005,5.853067673787173
74271,Seytroux,74430,74,46.23846582701192,6.607116660538603
74272,Sillingy,74330,74,45.951717153161525,6.034991408976905
74273,Sixt Fer A Cheval,74740,74,46.049107414313696,6.811227391436168
74226,St Andre De Boege,74420,74,46.19478778304271,6.3824967161842014
74228,St Blaise,74350,74,46.065338067539905,6.091704178197252
74229,St Cergues,74140,74,46.2334644337878,6.32477317380301
74231,St Eusebe,74150,74,45.92635262868261,5.9614507760376885
74232,St Eustache,74410,74,45.79523888380316,6.1439241824625785
74233,St Felix,74540,74,45.80784733388526,5.977443228762438
74234,St Ferreol,74210,74,45.78352254469485,6.30752629084895
74235,St Germain Sur Rhone,74910,74,46.072084374078564,5.82936459356954
74236,St Gervais Les Bains,74170,74,45.855404378810235,6.763725263923799
74237,St Gingolph,74500,74,46.38900315371938,6.776822730197827
74238,St Jean D Aulps,74430,74,46.228360285846854,6.66439354519035
74239,St Jean De Sixt,74450,74,45.92406872807673,6.410385177740379
74240,St Jean De Tholome,74250,74,46.11220674384463,6.417498526592057
74241,St Jeoire,74490,74,46.14457155855447,6.469586208836818
74242,St Jorioz,74410,74,45.82471226054918,6.149577936748195
74243,St Julien En Genevois,74160,74,46.13746071390709,6.087684704914487
74244,St Laurent,74800,74,46.03672845357152,6.358777139425433
74249,St Paul En Chablais,74500,74,46.368555642988234,6.639294992122883
74250,St Pierre En Faucigny,74800,74,46.05913842484029,6.37354827840638
74252,St Sigismond,74300,74,46.07433137003507,6.618447897879163
74253,St Sixt,74800,74,46.03900241364845,6.321642068881908
74254,St Sylvestre,74540,74,45.84191844258706,6.010463532893936
74275,Talloires Montmin,74210,74,45.81705829444678,6.231942222773202
74276,Taninges,74440,74,46.134087477604595,6.613651616842693
74279,Thollon Les Memises,74500,74,46.38414954579163,6.737322948458424
74280,Thones,74230,74,45.88344380241847,6.332883678197991
74281,Thonon Les Bains,74200,74,46.37449136649062,6.477552765896895
74283,Thusy,74150,74,45.946606447335895,5.964077402933299
74278,Thyez,74300,74,46.089888547004186,6.5359710805693645
74285,Usinens,74910,74,46.013134872826726,5.850045866877915
74286,Vacheresse,74360,74,46.32452958933253,6.702707569197657
74287,Vailly,74470,74,46.29082064855162,6.545483217555658
74167,Val De Chaise,74210,74,45.75969204297053,6.353374933335527
74288,Valleiry,74520,74,46.115343490647646,5.9706055465581755
74289,Vallieres Sur Fier,74150,74,45.91507515301609,5.914430026570438
74290,Vallorcine,74660,74,46.026866474916815,6.9037394733091455
74291,Vanzy,74270,74,46.0342230492986,5.872641126742538
74292,Vaulx,74150,74,45.925763885648905,5.998292108432389
74293,Veigy Foncenex,74140,74,46.27003173593555,6.269225167649079
74294,Verchaix,74440,74,46.12381712398005,6.694153816737817
74296,Vers,74160,74,46.09050993985334,6.027919999417564
74297,Versonnex,74150,74,45.92481039936645,5.927248957251075
74298,Vetraz Monthoux,74100,74,46.181763819193506,6.259765541468968
74299,Veyrier Du Lac,74290,74,45.88542425931401,6.1754521360564025
74301,Villard,74420,74,46.212988423681864,6.449021214715174
74303,Villaz,74370,74,45.95383783150711,6.1998775485385185
74304,Ville En Sallaz,74250,74,46.146469728699984,6.417779022331629
74305,Ville La Grand,74100,74,46.206108626188694,6.257929532372726
74306,Villy Le Bouveret,74350,74,46.04511694477259,6.159993489431395
74307,Villy Le Pelloux,74350,74,46.000389069616546,6.137134378164914
74308,Vinzier,74500,74,46.34208821171616,6.613605734076014
74309,Viry,74580,74,46.11498119661617,6.022944301371304
74311,Viuz En Sallaz,74250,74,46.165376809492415,6.407772116095467
74310,Viuz La Chiesaz,74540,74,45.81248849562283,6.077092911363122
74312,Vougy,74130,74,46.066210027310134,6.4894007671382425
74313,Vovray En Bornes,74350,74,46.06205265244526,6.140145556098197
74314,Vulbens,74520,74,46.10834888057836,5.933865719161453
74315,Yvoire,74140,74,46.36233092599021,6.3322001013144815
